[{"id":1,"adi":"ÖZDEN AKARYAKIT VE MADENİ YAĞ SANAYİ TİCARET ANONİM ŞİRKETİ","marka":"OPET","adres":"Merkez Mahallesi Kışla Caddesi  No:154","lat":41.05191,"lng":28.911226,"ilce":"Gazi̇osmanpaşa","il":"İstanbul"},{"id":2,"adi":"ÖZ YILDIZ KARDEŞLER PETROL HALI MOBİLYA GIDA SANAYİ VE TİCARET LİMİTED ŞİRKETİ","marka":"OPET","adres":"Başpınar Mevkii Vali Konağı Karşısı","lat":39.860698,"lng":33.557162,"ilce":"Merkez","il":"Kirikkale"},{"id":3,"adi":"AKPA DAYANIKLI TÜKETİM LPG VE AKARYAKIT ÜRÜNLERİ PAZARLAMA ANONİM ŞİRKETİ","marka":"OPET","adres":"Organgazi Mahallesi Kütahya Yolu Caddesi  No:278","lat":39.752167,"lng":30.450165,"ilce":"Merkez","il":"Eski̇şehi̇r"},{"id":4,"adi":"TOPALOĞLU PETROL TARIM SANAYİ TİCARET LİMİTED ŞİRKETİ","marka":"OPET","adres":"Tuna Mahallesi Kozan Caddesi  No:111","lat":36.99147,"lng":35.346113,"ilce":"İmamoğlu","il":"Adana"},{"id":5,"adi":"ÖZTÜRKLER TARIM VE PETROL ÜRÜNLERİ TİCARET LİMİTED ŞİRKETİ","marka":"OPET","adres":"Kirazlıyalı Mahallesi 1 Mayıs Caddesi  No:3","lat":40.778752,"lng":29.693799,"ilce":"Körfez","il":"Kocaeli̇"},{"id":6,"adi":"MOBİPA MOBİLYA TEKSTİL İNŞAAT NAKLİYE PETROL ÜRÜNLERİ SÜPERMARKET VE TURİZM SANAYİ TİCARET ANONİM ŞİRKETİ","marka":"OPET","adres":"Emek Fatih Sultan Mehmet Mahallesi Sanayi Caddesi  No:622","lat":40.258321,"lng":28.952583,"ilce":"Osmangazi̇","il":"Bursa"},{"id":7,"adi":"AYDOĞDU PETR.TURİZMİNŞTAAH.TİC.VE SAN. LTD.ŞTİ","marka":"OPET","adres":"Hüseyin Okan Merzeci Mah. Akbelen Bulvarı No:243/a","lat":36.841798,"lng":34.588768,"ilce":"Toroslar","il":"Mersi̇n"},{"id":8,"adi":"FULYA AKARYAKIT TİCARET VE SANAYİ ANONİM ŞİRKETİ","marka":"OPET","adres":"Dikilitaş Mahallesi Hakkı Yeten Caddesi  No:14","lat":41.055095,"lng":28.999875,"ilce":"Beşi̇ktaş","il":"İstanbul"},{"id":9,"adi":"ÇETİN İNŞAAT PETROL ÜRÜNLERİ HAFRİYAT MAKİNE TİCARET VE SANAYİ LİMİTED ŞİRKETİ","marka":"TERMOPET AKARYAKIT ANONİM ŞİRKETİ","adres":"Altınova Beldesi Peçenek Mahallesi No. 59","lat":40.067134,"lng":32.974555,"ilce":"Altindağ","il":"Ankara"},{"id":10,"adi":"AYDOĞDU PETROL TURİZM İNŞAAT TAAHHÜT TİCARETVE SANAYİ LİMİTED ŞİRKETİ","marka":"OPET","adres":"Yeni Mahallesi, G.m.k. Bulvarı, No:156","lat":36.739741,"lng":34.518307,"ilce":"Mezi̇tli̇","il":"Mersi̇n"},{"id":11,"adi":"YENİKENT PETROL ÜRÜNLERİ OTOMOTİV İNŞAAT GİYİM GIDA SANAYİ VE TİCARET LİMİTED ŞİRKETİ","marka":"OPET","adres":"Menderes Mahallesi  Ayaş Yolu 30.kmYenikent Köyü","lat":40.01694,"lng":32.51874,"ilce":"Si̇ncan","il":"Ankara"},{"id":12,"adi":"CESAN PETROL VE İNŞAAT LİMİTED ŞİRKETİ","marka":"OPET","adres":"No:225 Karaoğlan Köyü Sermeleri","lat":39.773444,"lng":32.80466,"ilce":"Gölbaşi","il":"Ankara"},{"id":13,"adi":"SERACETTİN SARI-SARILAR PETROL","marka":"OPET","adres":"DEDELER KÖYÜ","lat":36.959977,"lng":34.78683,"ilce":"Tarsus","il":"Mersi̇n"},{"id":14,"adi":"ÜNYAZ OTOMOTİV PETROL ÜRÜNLERİ PAZARLAMA SANAYİ VE TİCARET ANONİM ŞİRKETİ","marka":"OPET","adres":"Şeyh Kuyusu Mahallesi E 90 Karayolu Bulvarı  No:5","lat":38.933628,"lng":33.542659,"ilce":"Şerefli̇koçhi̇sar","il":"Ankara"},{"id":15,"adi":"SARITAŞ TURİZM İNŞAAT TİCARET NAKLİYAT LİMİTED ŞİRKETİ","marka":"OPET","adres":"Atatürk Mahallesi  No:10","lat":38.417947,"lng":27.129514,"ilce":"Kemalpaşa","il":"İzmi̇r"},{"id":16,"adi":"ŞEMŞİOĞLU PETROL ÜRÜNLERİ TARIM ÜRÜNLERİ İNŞAAT MALZEMELERİ NAKLİYECİLİK VE TİCARET LİMİTED ŞİRKETİ","marka":"TERMOPET AKARYAKIT ANONİM ŞİRKETİ","adres":"Körhasan Köyü Köyü","lat":39.384407,"lng":31.195212,"ilce":"Çi̇fteler","il":"Eski̇şehi̇r"},{"id":17,"adi":"PRESTİJ PETROL TEKSTİL GIDA İNŞAAT TURİZM SANAYİ TİCARET LİMİTED ŞİRKETİ","marka":"OPET","adres":"Mahmutbey Mahallesi Taşocağı Yolu Caddesi Tanyeli Sokak No:1","lat":41.049015,"lng":28.811694,"ilce":"Bağcilar","il":"İstanbul"},{"id":18,"adi":"LATİF BAŞKAL AKARYAKIT TİCARET VE SANAYİ ANONİM ŞİRKETİ","marka":"OPET","adres":"Sivas Caddesi  5. Km","lat":38.811118,"lng":35.611439,"ilce":"Meli̇kgazi̇","il":"Kayseri̇"},{"id":19,"adi":"TUNÇMAN PETROL SANAYİ VE TİCARET LİMİTED ŞİRKETİ","marka":"OPET","adres":"Yenisarıbey Köyü Girişi Ortasarıbey Köyü","lat":40.142673,"lng":28.234225,"ilce":"Karacabey","il":"Bursa"},{"id":20,"adi":"KOCAMANLAR ORMAN ÜRÜNLERİ İNŞAAT VE MALZEMESİ NAKLİYE SANAYİ TİCARET LİMİTED ŞİRKETİ","marka":"OPET","adres":"Akçaova Izmit Yolu Yolbasan Mevkii","lat":41.052417,"lng":30.029082,"ilce":"Kandira","il":"Kocaeli̇"},{"id":21,"adi":"KOCAMANLAR ORMAN ÜRÜNLERİ İNŞAAT VE MALZEMESİ NAKLİYE SANAYİ TİCARET LİMİTED ŞİRKETİ","marka":"OPET","adres":"Şerefsungur Köyü Döletler Mahallesi","lat":41.052417,"lng":30.029082,"ilce":"Kandira","il":"Kocaeli̇"},{"id":22,"adi":"MOBİPA MOBİLYA TEKSTİL İNŞAAT NAKLİYE PETROL ÜRÜNLERİ SÜPERMARKET VE TURİZM SANAYİ TİCARET ANONİM ŞİRKETİ","marka":"OPET","adres":"Süleymaniye Mahallesi Babacan Sokağı  No:21/A","lat":40.080082,"lng":29.509697,"ilce":"İnegöl","il":"Bursa"},{"id":23,"adi":"BOZOK PETROLCÜLÜK VE TİCARET ANONİM ŞİRKETİ","marka":"OPET","adres":"Kurtköy Mahallesi Ankara Caddesi  No:275/1","lat":40.908963,"lng":29.294452,"ilce":"Pendi̇k","il":"İstanbul"},{"id":24,"adi":"BAYRAKTAR PETROL ÜRÜNLERİ PAZARLAMA SANAYİ VE TİCARET LİMİTED ŞİRKETİ","marka":"TERMOPET AKARYAKIT ANONİM ŞİRKETİ","adres":"Danamandıra Köyü Köyü","lat":41.3117,"lng":28.2448,"ilce":"Si̇li̇vri̇","il":"İstanbul"},{"id":25,"adi":"SAVAŞ PETROL ÜRÜNLERİ SANAYİ TİCARET LİMİTED ŞİRKETİ","marka":"OPET","adres":"Şeyhli Ankara Caddesi No:4","lat":40.905823,"lng":29.28585,"ilce":"Pendi̇k","il":"İstanbul"},{"id":26,"adi":"ESA PETROL NAKLİYE TAAHHÜT VE TİCARET LİMİTED ŞİRKETİ","marka":"OPET","adres":"Dumlupınar Mh. D-100 Karayolu Üzeri Kaşkaldere","lat":40.75619,"lng":29.822286,"ilce":"Deri̇nce","il":"Kocaeli̇"},{"id":27,"adi":"SINIRLI SORUMLU ESKİŞEHİR PANCAR EKİCİLERİ KOOPERATİFİ","marka":"OPET","adres":"Yenikent Mahallesi  Osmaniye","lat":39.813104,"lng":31.03351,"ilce":"Alpu","il":"Eski̇şehi̇r"},{"id":28,"adi":"BOYTRANS LOJİSTİK HİZMETLERİ VE TİCARET ANONİM ŞİRKETİ","marka":"OPET","adres":"8 Caddesi  No:62 Kayseri Organize Sanayi Bölgesi","lat":38.731302,"lng":35.361805,"ilce":"Merkez","il":"Kayseri̇"},{"id":29,"adi":"UZUNLAR OTOMOTİV ZAHİRE SANAYİ VE TİCARET LİMİTED ŞİRKETİ","marka":"OPET","adres":"Abdurrahman Mahallesi Atatürk Bulvarı  No:245","lat":41.666965,"lng":26.571354,"ilce":"Merkez","il":"Edi̇rne"},{"id":30,"adi":"MERTER PETROL NAKLİYAT SANAYİ VE TİCARET ANONİM ŞİRKETİ","marka":"OPET","adres":"Mehmet Nesih Özmen Mahallesi Kasım Sokağı  No:2","lat":41.008156,"lng":28.88196,"ilce":"Güngören","il":"İstanbul"},{"id":31,"adi":"YETKİN AKARYAKIT MADENCİLİK ZİRAİ ÜRÜN ALETLER SANAYİ VE TİCARET LİMİTED ŞİRKETİ","marka":"OPET","adres":"ToramanAksaklı Köyü Köyü","lat":39.613124,"lng":30.745039,"ilce":"Seyi̇tgazi̇","il":"Eski̇şehi̇r"},{"id":32,"adi":"AYDIN PETROLCÜLÜK VE TİCARET ANONİM ŞİRKETİ","marka":"OPET","adres":"Evrenköy Mahallesi Profesör Doktor Sabahattin Zaim Bulvarı  No:93","lat":40.802336,"lng":30.367034,"ilce":"Adapazari","il":"Sakarya"},{"id":33,"adi":"KARAMANLAR AKARYAKIT NAKLİYAT BEYAZ EŞYA GIDA TEMİZLİK İNŞAAT SANAYİ VE TİCARET LİMİTED ŞİRKETİ","marka":"OPET","adres":"Kamanlar Yolu 1.km Üzeri","lat":40.226728,"lng":32.261675,"ilce":"Güdül","il":"Ankara"},{"id":34,"adi":"LATİF BAŞKAL AKARYAKIT TİCARET VE SANAYİ ANONİM ŞİRKETİ","marka":"OPET","adres":"Turgutreis Mahallesi Bağdat Caddesi  No:248","lat":38.746931,"lng":35.4487,"ilce":"Kocasi̇nan","il":"Kayseri̇"},{"id":35,"adi":"SÖNMEZLER PETROLCÜLÜK TAŞIMACILIK SANAYİ VE TİCARET ANONİM ŞİRKETİ","marka":"TERMOPET AKARYAKIT ANONİM ŞİRKETİ","adres":"Onur Mahallesi Turhan Cemal Beriker Bulvarı  No:407/A","lat":36.995762,"lng":35.263359,"ilce":"Seyhan","il":"Adana"},{"id":36,"adi":"UÇAÇELİK AKARYAKIT TARIM ÜRÜNLERİ OTOMOTİV TİCARET VE SANAYİ LİMİTED ŞİRKETİ","marka":"OPET","adres":"Hürriyet Mahallesi Kapalı Spor Salonu Karşısı","lat":38.227677,"lng":27.987925,"ilce":"Ödemi̇ş","il":"İzmi̇r"},{"id":37,"adi":"HESAPÇIOĞLU OTOMOTİV PETROL TURİZM TAŞIMACILIK İNŞAAT TARIM HAYVANCILIK TİCARET SANAYİ VE PAZARLAMA ANONİM ŞİRKETİ","marka":"OPET","adres":"Altınova Sinan Mahallesi Serik Caddesi  No:157","lat":36.908833,"lng":30.769616,"ilce":"Merkez","il":"Antalya"},{"id":38,"adi":"HESAPÇIOĞLU OTOMOTİV PETROL TURİZM TAŞIMACILIK İNŞAAT TARIM HAYVANCILIK TİCARET SANAYİ VE PAZARLAMA ANONİM ŞİRKETİ","marka":"OPET","adres":"Yeşilova Mahallesi Aspendos Bulvarı  No:182","lat":36.895085,"lng":30.758208,"ilce":"Muratpaşa","il":"Antalya"},{"id":39,"adi":"HESAPÇIOĞLU OTOMOTİV PETROL TURİZM TAŞIMACILIK İNŞAAT TARIM HAYVANCILIK TİCARET SANAYİ VE PAZARLAMA ANONİM ŞİRKETİ","marka":"OPET","adres":"Beymelek Mahallesi Akdeniz Bulvarı  No:243","lat":36.847395,"lng":30.613213,"ilce":"Demre","il":"Antalya"},{"id":40,"adi":"ANT PETROL ÜRÜNLERİ TİCARET LİMİTED ŞİRKETİ","marka":"TERMOPET AKARYAKIT ANONİM ŞİRKETİ","adres":"Karataş Caddesi  No:674Havutlu Köyü","lat":36.913458,"lng":35.354132,"ilce":"Yüreği̇r","il":"Adana"},{"id":41,"adi":"ELİF PETROL AKARYAKIT ÜRÜNLERİ SANAYİ VE TİCARET LİMİTED ŞİRKETİ","marka":"OPET","adres":"Çavuş Mahallesi Ağva Caddesi","lat":41.162514,"lng":29.621637,"ilce":"Şi̇le","il":"İstanbul"},{"id":42,"adi":"CONVEY PETROL ÜRÜNLERİ SANAYİ VE TİCARET LİMİTED ŞİRKETİ","marka":"OPET","adres":"Karadolap Mahallesi Mustafa Kemal Bulvarı  No:15","lat":41.079454,"lng":28.93064,"ilce":"Eyüpsultan","il":"İstanbul"},{"id":43,"adi":"TERAS AKARYAKIT DİNLENME TESİSLERİ İNŞ TURZ. OTO. GIDA SANAYİ VE TİCARET LİMİTED ŞİRKETİ","marka":"OPET","adres":"Çopurlu Mahallesi Kutlubey Sokağı  No:54","lat":36.860271,"lng":34.570604,"ilce":"Toroslar","il":"Mersi̇n"},{"id":44,"adi":"ÖZSOYLAR TARIM VE ENDÜSTRİ ÜRÜNLERİ TİCARET LİMİTED ŞİRKETİ","marka":"OPET","adres":"Akıncı Mahallesi  Çarşıiçi Yerkesik","lat":37.138461,"lng":28.285419,"ilce":"Merkez","il":"Muğla"},{"id":45,"adi":"İSTANBUL ENERJİ SANAYİ VE TİCARET ANONİM ŞİRKETİ","marka":"OPET","adres":"Selimiye Mahallesi Mahallesi Tıbbiye Caddesi Caddesi Atölyeler Sokak Sokağı  No:8","lat":41.010027,"lng":29.019875,"ilce":"Üsküdar","il":"İstanbul"},{"id":46,"adi":"İSTANBUL ENERJİ SANAYİ VE TİCARET ANONİM ŞİRKETİ","marka":"OPET","adres":"Dereağzı Mahallesi Denizyolu Caddesi No:28/2","lat":40.973028,"lng":28.597706,"ilce":"Beyli̇kdüzü","il":"İstanbul"},{"id":47,"adi":"HESAPÇIOĞLU OTOMOTİV PETROL TURİZM TAŞIMACILIK İNŞAAT TARIM HAYVANCILIK TİCARET SANAYİ VE PAZARLAMA ANONİM ŞİRKETİ","marka":"OPET","adres":"Topallı Mahallesi Paşalar Sokağı  No:61/2","lat":36.87491,"lng":30.621967,"ilce":"Aksu","il":"Antalya"},{"id":48,"adi":"HESAPÇIOĞLU OTOMOTİV PETROL TURİZM TAŞIMACILIK İNŞAAT TARIM HAYVANCILIK TİCARET SANAYİ VE PAZARLAMA ANONİM ŞİRKETİ","marka":"OPET","adres":"Yüksekalan Mahallesi Adnan Menderes Bulvarı  No:16","lat":36.895085,"lng":30.758208,"ilce":"Muratpaşa","il":"Antalya"},{"id":49,"adi":"H.İ.S.K.A. TARIM GIDA NAKLİYE AKARYAKIT MADENCİLİK SANAYİ VE TİCARET LİMİTED ŞİRKETİ","marka":"TERMOPET AKARYAKIT ANONİM ŞİRKETİ","adres":"Burcun Köyü Sazlık Mevkii","lat":40.324336,"lng":29.422112,"ilce":"Yeni̇şehi̇r","il":"Bursa"},{"id":50,"adi":"SADIK OTOMOTİV AKARTYAKIT EV ALETLERİ TURİZM TEKSTİL GIDA MARKET LOKANTA İŞLETMECİLİĞİ SANAYİ VE TİCARET LİMİTED ŞİRKETİ","marka":"OPET","adres":"Ankara Asfaltı Üzeri 16. Km Pınarkent","lat":37.845383,"lng":29.092536,"ilce":"Merkez","il":"Deni̇zli̇"},{"id":51,"adi":"KURŞUNLU ŞELALE PETROL İNŞAAT TAAHHÜT TURİZM GIDA PAZARLAMA SANAYİ VE TİCARET LİMİTED ŞİRKETİ","marka":"OPET","adres":"Yeni Isparta Yolu 20. Km Kurşunlu Şelalesi Yol Kavşağı Fettahlı Köyü","lat":36.987429,"lng":30.814095,"ilce":"Aksu","il":"Antalya"},{"id":52,"adi":"HATİPOĞLU PAZARLAMA PETROL ÜRÜNLERİ İTHALAT İHRACAT NAKLİYE GIDA TURİZM OTELCİLİK SANAYİ VE TİCARET LİMİTED ŞİRKETİ","marka":"OPET","adres":"Yalı Mahallesi Hürriyet Caddesi  No:302","lat":38.691713,"lng":27.001782,"ilce":"Ali̇ağa","il":"İzmi̇r"},{"id":53,"adi":"EVGÜN PETROL ÜRÜNLERİ İNŞAAT NAKLİYAT TAAHHÜT İTHALAT İHRACAT SANAYİ VE TİCARET LİMİTED ŞİRKETİ","marka":"TERMOPET AKARYAKIT ANONİM ŞİRKETİ","adres":"Karpuzlu Köyü MevkiiBekirhan Köyü","lat":38.122015,"lng":41.236513,"ilce":"Kozluk","il":"Batman"},{"id":54,"adi":"HESAPÇIOĞLU OTOMOTİV PETROL TURİZM TAŞIMACILIK İNŞAAT TARIM HAYVANCILIK TİCARET SANAYİ VE PAZARLAMA ANONİM ŞİRKETİ","marka":"OPET","adres":"İmrahor Mahallesi İmrahor Antalya Bulvarı No.71","lat":37.056848,"lng":30.226068,"ilce":"Korkuteli̇","il":"Antalya"},{"id":55,"adi":"GÜLLÜOĞLU MADENCİLİK TELEKOM PETROL ÜRÜNLERİ İNŞAAT TURİZM GIDA TAŞIMACILIK TİCARET VE SANAYİ LİMİTED ŞİRKETİ","marka":"OPET","adres":"Gülveren Mahallesi Plevne Caddesi No:86","lat":39.942664,"lng":32.888174,"ilce":"Mamak","il":"Ankara"},{"id":56,"adi":"ŞAHİNTAŞ PETROL OTOMOTİV SANAYİ VE TİCARET ANONİM ŞİRKETİ","marka":"OPET","adres":"Aydınlar Mah. Sanikonukoğlu Bul. Küsget Sanayi Kavşağı","lat":37.078679,"lng":37.412402,"ilce":"Şehi̇tkami̇l","il":"Gazi̇antep"},{"id":57,"adi":"İŞBAŞARANLAR OTOMOTİV SANAYİ VE TİCARET LİMİTED ŞİRKETİ","marka":"OPET","adres":"Mesçit Mahallesi Keşan Caddesi  Sanayi Sitesi Girişi","lat":41.261803,"lng":26.687802,"ilce":"Uzunköprü","il":"Edi̇rne"},{"id":58,"adi":"BOZOK PETROLCÜLÜK VE TİCARET ANONİM ŞİRKETİ","marka":"OPET","adres":"Küçükbakkalköy Mahallesi Vedat Günyol Caddesi  No:16-18","lat":40.982273,"lng":29.105956,"ilce":"Ataşehi̇r","il":"İstanbul"},{"id":59,"adi":"UFUK AKARYAKIT TİCARET VE TURİZM LİMİTED ŞİRKETİ","marka":"OPET","adres":"Mithatpaşa Caddesi  No:1254","lat":38.393225,"lng":27.022489,"ilce":"Balçova","il":"İzmi̇r"},{"id":60,"adi":"HESAPÇIOĞLU OTOMOTİV PETROL TURİZM TAŞIMACILIK İNŞAAT TARIM HAYVANCILIK TİCARET SANAYİ VE PAZARLAMA ANONİM ŞİRKETİ","marka":"OPET","adres":"Altıntaş Mahallesi Kardeş Kentler Caddesi  No:4","lat":36.87491,"lng":30.621967,"ilce":"Aksu","il":"Antalya"},{"id":61,"adi":"KARTALKAYA İNŞAAT - RENT A CAR SANAYİ VE TİCARET LİMİTED ŞİRKETİ","marka":"OPET","adres":"Selimpaşa Mahallesi 2081 Sokağı  No:3","lat":41.089461,"lng":28.866825,"ilce":"Si̇li̇vri̇","il":"İstanbul"},{"id":62,"adi":"GÖÇMENTÜRK DAYANIKLI TÜKETİM MALLARI TİCARET VE TURİZM LİMİTED ŞİRKETİ","marka":"OPET","adres":"Kızlarpınarı Mahallesi Şeyh Şamil Caddesi  No:18 Otogar Yanı","lat":36.553476,"lng":31.977155,"ilce":"Alanya","il":"Antalya"},{"id":63,"adi":"HESAPÇIOĞLU OTOMOTİV PETROL TURİZM TAŞIMACILIK İNŞAAT TARIM HAYVANCILIK TİCARET SANAYİ VE PAZARLAMA ANONİM ŞİRKETİ","marka":"OPET","adres":"Yenigöl Mahallesi Serik Caddesi  No:68 Altınova","lat":36.908833,"lng":30.769616,"ilce":"Merkez","il":"Antalya"},{"id":64,"adi":"HESAPÇIOĞLU OTOMOTİV PETROL TURİZM TAŞIMACILIK İNŞAAT TARIM HAYVANCILIK TİCARET SANAYİ VE PAZARLAMA ANONİM ŞİRKETİ","marka":"OPET","adres":"Gürsu Mahallesi Atatürk Bulvarı  No:179/ A","lat":36.863633,"lng":30.631809,"ilce":"Konyaalti","il":"Antalya"},{"id":65,"adi":"ÖZSOYLAR TARIM VE ENDÜSTRİ ÜRÜNLERİ TİCARET LİMİTED ŞİRKETİ","marka":"OPET","adres":"Akıncı Mahallesi Yenikuyu Caddesi 39. Sokağı  No:23Yerkesik Köyü","lat":37.138461,"lng":28.285419,"ilce":"Merkez","il":"Muğla"},{"id":66,"adi":"CEYNAK LOJİSTİK VE TİCARET ANONİM ŞİRKETİ","marka":"OPET","adres":"Yenibosna,cemal Ulusoy Caddesi Basın Ekspres Yolu No:21","lat":41.015601,"lng":28.810359,"ilce":"Bahçeli̇evler","il":"İstanbul"},{"id":67,"adi":"NURPET PETROL TİCARET VE SANAYİ ANONİM ŞİRKETİ","marka":"OPET","adres":"Panayır Mahallesi İstanbul Caddesi  No:504","lat":40.252693,"lng":29.06491,"ilce":"Osmangazi̇","il":"Bursa"},{"id":68,"adi":"SELÇUK PETROL TİCARET VE SANAYİ LİMİTED ŞİRKETİ","marka":"OPET","adres":"Karaman Mahallesi İzmir Yolu Caddesi  No:64/1","lat":40.212919,"lng":28.999996,"ilce":"Ni̇lüfer","il":"Bursa"},{"id":69,"adi":"HALİL PEKDEMİR ÇİFTLİĞİ GIDA VE İHTİYAÇ MADDELERİ TİCARET VE SANAYİ LİMİTED ŞİRKETİ","marka":"OPET","adres":"Köprübaşı Mahallesi Kavacık Caddesi  No:16","lat":37.116644,"lng":28.384754,"ilce":"Ula","il":"Muğla"},{"id":70,"adi":"ANIL PETROL ÜRÜNLERİ YEDEK PARÇA SANAYİ TİCARET LİMİTED ŞİRKETİ","marka":"OPET","adres":"İstanbul Yolu 52. Km","lat":39.933363,"lng":32.859742,"ilce":"Kahramankazan","il":"Ankara"},{"id":71,"adi":"ERDOĞANLAR EYÜP ERDOĞAN VE ZELİHA ERDOĞAN KOLLEKTİF ŞİRKETİ","marka":"OPET","adres":"Abdürrahim Köyü Küme Evleri No:186","lat":40.641594,"lng":26.258552,"ilce":"Enez","il":"Edi̇rne"},{"id":72,"adi":"YEŞİL VADİ EMİNELLER TURİZM SANAYİ TİCARET İNŞAAT VE TAAHHÜT LİMİTED ŞİRKETİ","marka":"OPET","adres":"Çayboyu Beldesi","lat":37.481776,"lng":28.344768,"ilce":"Kavaklidere","il":"Muğla"},{"id":73,"adi":"FİDAN AKARYAKIT VE PETROL ÜRÜNLERİ İŞLETMELERİ SANAYİ VE TİCARET LİMİTED ŞİRKETİ","marka":"OPET","adres":"Altıayak Mahallesi  Gaziler Yolu Üzeri Varsak","lat":36.991543,"lng":30.747345,"ilce":"Merkez","il":"Antalya"},{"id":74,"adi":"ALBAYRAK PETROL TARIM ÜRÜNLERİ İNŞAAT OTOMOTİV GIDA TURİZM TAAHHÜT NAKLİYAT PAZARLAMA İTHALAT İHRACAT SANAYİ VE TİCARET LİMİTED ŞİRKETİ","marka":"OPET","adres":"Ankara Caddesi Fatih Sultan Mehmet Mahallesi No:56","lat":39.593118,"lng":33.378173,"ilce":"Karakeçi̇li̇","il":"Kirikkale"},{"id":75,"adi":"ASAL PETROL OTOMOTİV SANAYİ VE TİCARET ANONİM ŞİRKETİ","marka":"OPET","adres":"Denizevleri Mahallesi Mahallesi Atatürk Bulvarı Caddesi  No:94","lat":41.422243,"lng":36.164198,"ilce":"Atakum","il":"Samsun"},{"id":76,"adi":"ENİS BAĞÇİVAN-ECEM PETROL","marka":"OPET","adres":"Yedi Eylül Mahallesi Philsa Caddesi  No:10","lat":38.185001,"lng":27.354686,"ilce":"Torbali","il":"İzmi̇r"},{"id":77,"adi":"KÖK PETROL SANAYİ VE TİCARET LİMİTED ŞİRKETİ","marka":"OPET","adres":"Mahmutbey İnönü Cad.no:12","lat":41.05884,"lng":28.831123,"ilce":"Bağcilar","il":"İstanbul"},{"id":78,"adi":"ÖRGÜN PETROL VE OTOMOTİV SANAYİ TİCARET LİMİTED ŞİRKETİ","marka":"OPET","adres":"Muradiye Mahallesi Yalova Caddesi  No:100","lat":40.495203,"lng":29.31072,"ilce":"Orhangazi̇","il":"Bursa"},{"id":79,"adi":"ÖRGÜN PETROL VE OTOMOTİV SANAYİ TİCARET LİMİTED ŞİRKETİ","marka":"OPET","adres":"Fatih Mahallesi Bursa Yalova Yolu Caddesi  No:9","lat":40.495203,"lng":29.31072,"ilce":"Orhangazi̇","il":"Bursa"},{"id":80,"adi":"HALİL PEKDEMİR ÇİFTLİĞİ GIDA VE İHTİYAÇ MADDELERİ TİCARET VE SANAYİ LİMİTED ŞİRKETİ","marka":"OPET","adres":"Kayıhan Mahallesi Eski Acıpayam Caddesi  No:121","lat":37.775992,"lng":29.099198,"ilce":"Merkez","il":"Deni̇zli̇"},{"id":81,"adi":"VEZİRKÖPRÜ CEYHANLAR İNŞAAT SANAYİ VE TİCARET LİMİTED ŞİRKETİ","marka":"TERMOPET AKARYAKIT ANONİM ŞİRKETİ","adres":"Habibfaki","lat":41.143111,"lng":35.460594,"ilce":"Vezi̇rköprü","il":"Samsun"},{"id":82,"adi":"KEMAL CAN METAL SANAYİ ve TİCARET LİMİTED ŞİRKETİ","marka":"OPET","adres":"Vezirçiftliği Mahallesi D-130 Karayolu Caddesi No.114","lat":40.733642,"lng":29.955031,"ilce":"Başi̇skele","il":"Kocaeli̇"},{"id":83,"adi":"UTŞ GIDA İNŞAAT TEKSTİL PETROL VE AMBALAJ SANAYİ TİCARET LİMİTED ŞİRKETİ","marka":"OPET","adres":"Ismetpaşa Mahallesi Ismetpaşa Bulvarı  No:106","lat":36.909428,"lng":34.887159,"ilce":"Tarsus","il":"Mersi̇n"},{"id":84,"adi":"KELKİT VADİSİ PETROL TURİZM OTOMOTİV VE İNŞAAT SANAYİ TİCARET LİMİTED ŞİRKETİ","marka":"OPET","adres":"Bağlarbaşı Mah. Refahevler Sok. No: 2","lat":40.928987,"lng":29.146471,"ilce":"Maltepe","il":"İstanbul"},{"id":85,"adi":"KOMPET PETROL ÜRÜNLERİ TURİZM GIDA NAKLİYE İNŞAAT TAAHHÜT SANAYİ VE TİCARET LİMİTED ŞİRKETİ","marka":"OPET","adres":"Şirinköy Mahallesi  No:100 Şirinköy Küme Evleri","lat":38.2241,"lng":27.8686,"ilce":"Ödemi̇ş","il":"İzmi̇r"},{"id":86,"adi":"HALİL PEKDEMİR ÇİFTLİĞİ GIDA VE İHTİYAÇ MADDELERİ TİCARET VE SANAYİ LİMİTED ŞİRKETİ","marka":"OPET","adres":"Yunuıs Emre Mahallesi Süleyman Demirel Bulvarı  No:24 Kınıklı","lat":37.775992,"lng":29.099198,"ilce":"Merkez","il":"Deni̇zli̇"},{"id":87,"adi":"OLUÇ PETROL TURİZM SANAYİ VE TİCARET LİMİTED ŞİRKETİ","marka":"OPET","adres":"Bahçelievler Mahallesi Bahçelievler Caddesi  No:221","lat":37.774197,"lng":29.024106,"ilce":"Merkez","il":"Deni̇zli̇"},{"id":88,"adi":"OSMAN ONUR","marka":"TERMOPET AKARYAKIT ANONİM ŞİRKETİ","adres":"Akçakoyun Mahallesi Akçakoyun Sokağı  No:210 Tavşantepe Mevkii","lat":40.258545,"lng":28.363715,"ilce":"Karacabey","il":"Bursa"},{"id":89,"adi":"CENGİZ BÜKTEL - CENGİZ PETROL AKARYAKIT TİCARETİ","marka":"TERMOPET AKARYAKIT ANONİM ŞİRKETİ","adres":"YALIÇİFTLİK KÖYÜ HARMANLAR MEVKİİ","lat":40.348291,"lng":28.720439,"ilce":"Mudanya","il":"Bursa"},{"id":90,"adi":"HESAPÇIOĞLU OTOMOTİV PETROL TURİZM TAŞIMACILIK İNŞAAT TARIM HAYVANCILIK TİCARET SANAYİ VE PAZARLAMA ANONİM ŞİRKETİ","marka":"OPET","adres":"Ayanoğlu Mahallesi Süleyman Demirel Bulvarı  No:259","lat":36.95606,"lng":30.709667,"ilce":"Kepez","il":"Antalya"},{"id":91,"adi":"ÜNAL AKARYAKIT DİNLENME TESİSLERİ ZİRAİ ÜRÜNLER HAYVANCILIK GIDA İNŞAAT NAKLİYAT TAAHHÜT SANAYİ TİCARET LİMİTED ŞİRKETİ","marka":"OPET","adres":"Küçük Hataplı","lat":40.9445,"lng":30.3295,"ilce":"Adapazari","il":"Sakarya"},{"id":92,"adi":"MOBİPA MOBİLYA TEKSTİL İNŞAAT NAKLİYE PETROL ÜRÜNLERİ SÜPERMARKET VE TURİZM SANAYİ TİCARET ANONİM ŞİRKETİ","marka":"OPET","adres":"Emek Zekai Gümüşdiş Mahallesi Sanayi Caddesi  No:550 550a","lat":40.258321,"lng":28.952583,"ilce":"Osmangazi̇","il":"Bursa"},{"id":93,"adi":"MOBİPA MOBİLYA TEKSTİL İNŞAAT NAKLİYE PETROL ÜRÜNLERİ SÜPER MARKET VE TURİZM SANAYİ TİCARET ANONİM ŞİRKETİ","marka":"OPET","adres":"Akhisar Mahallesi Bursa Karayolu Caddesi  No:38","lat":40.114772,"lng":29.476781,"ilce":"İnegöl","il":"Bursa"},{"id":94,"adi":"MOBİPA MOBİLYA TEKSTİL İNŞAAT NAKLİYE PETROL ÜRÜNLERİ SÜPER MARKET VE TURİZM SANAYİ TİCARET ANONİM ŞİRKETİ","marka":"OPET","adres":"Süleymaniye Mahallesi Eskişehir- Bursa Karayolu Caddesi  No:16","lat":40.114772,"lng":29.476781,"ilce":"İnegöl","il":"Bursa"},{"id":95,"adi":"ERDEM ANTALYA PETROL ÜRÜNLERİ TİCARET ANONİM ŞİRKETİ","marka":"OPET","adres":"Kanal Mahallesi Sakarya Bulvarı No:53","lat":36.912287,"lng":30.661691,"ilce":"Kepez","il":"Antalya"},{"id":96,"adi":"NURSEL ŞENOL","marka":"TERMOPET AKARYAKIT ANONİM ŞİRKETİ","adres":"Bıçakçı Sokağı  Çatalçeşme Balcı Köyü","lat":41.069633,"lng":30.199888,"ilce":"Kandira","il":"Kocaeli̇"},{"id":97,"adi":"ATAKÖY PETROL TİCARET LİMİTED ŞİRKETİ","marka":"OPET","adres":"Rauf Orbay Caddesi Sahil Yolu Gelik Yanı","lat":40.973892,"lng":28.874063,"ilce":"Bakirköy","il":"İstanbul"},{"id":98,"adi":"AYDIN PETROL ÜRÜNLERİ PAZARLAMA İNŞAAT SANAYİ VE TİCARET LİMİTED ŞİRKETİ","marka":"OPET","adres":"Atatürk Bulvarı Bulvarı  No:8","lat":38.694732,"lng":35.541567,"ilce":"Talas","il":"Kayseri̇"},{"id":99,"adi":"CE-KA PETROL TİCARET LİMİTED ŞİRKETİ","marka":"OPET","adres":"Haraparası Mahallesi Şehit Osman Durmaz Caddesi  No:15/1","lat":36.212884,"lng":36.168209,"ilce":"Antakya","il":"Hatay"},{"id":100,"adi":"İNCİLER OTOMOTİV PETROL ÜRÜNLERİ TURİZM İNŞAAT PAZARLAMA TİCARET VE SANAYİ LİMİTED ŞİRKETİ","marka":"OPET","adres":"D-100 Karayolu Üzeri","lat":40.753655,"lng":31.354969,"ilce":"Kaynaşli","il":"Düzce"},{"id":101,"adi":"HASAN ÖNDER-ÖNDERLER PETROL","marka":"OPET","adres":"Yeşilkaya Köyü Köyü","lat":38.30212,"lng":29.740258,"ilce":"Çi̇vri̇l","il":"Deni̇zli̇"},{"id":102,"adi":"YELKENBİÇER PETROL ÜRÜNLERİ TİCARET VE SANAYİ ANONİM ŞİRKETİ","marka":"OPET","adres":"Ankara Caddesi No.261","lat":38.4592,"lng":27.215108,"ilce":"Bornova","il":"İzmi̇r"},{"id":103,"adi":"ÖMÜR PETROL TİCARET VE SANAYİ LİMİTED ŞİRKETİ","marka":"OPET","adres":"ADNAN MENDERES Bulvarı  No:197GÜMÜŞLER","lat":37.845383,"lng":29.092536,"ilce":"Merkez","il":"Deni̇zli̇"},{"id":104,"adi":"AYDIN MARKET SANAYİ VE TİCARET LİMİTED ŞİRKETİ","marka":"OPET","adres":"Atatürk Mahallesi Aydın Caddesi  No:203","lat":38.155124,"lng":27.36528,"ilce":"Torbali","il":"İzmi̇r"},{"id":105,"adi":"MERTER PETROL NAKLİYAT SANAYİ VE TİCARET ANONİM ŞİRKETİ","marka":"OPET","adres":"Çiftlik Mahallesi Yalova İzmit Karayolu Caddesi  No:354/1","lat":40.673936,"lng":29.347147,"ilce":"Çi̇ftli̇kköy","il":"Yalova"},{"id":106,"adi":"BUPET BURSA PETROL ÜRÜN SANAYİ VE TİCARET ANONİM ŞİRKETİ","marka":"OPET","adres":"Gaziakdemir Mahallesi Mudanya Caddesi  No:54","lat":40.199778,"lng":29.043697,"ilce":"Osmangazi̇","il":"Bursa"},{"id":107,"adi":"HESAPÇIOĞLU OTOMOTİV PETROL TURİZM TAŞIMACILIK İNŞAAT TARIM HAYVANCILIK TİCARET SANAYİ VE PAZARLAMA ANONİM ŞİRKETİ","marka":"OPET","adres":"Yeşilbayır Mahallesi Akdeniz Bulvarı 234. Sokağı  No:22-1","lat":37.036279,"lng":30.625563,"ilce":"Döşemealti","il":"Antalya"},{"id":108,"adi":"ERDAL ÜLKER","marka":"TERMOPET AKARYAKIT ANONİM ŞİRKETİ","adres":". MahallesiMüslüm Köyü","lat":39.759043,"lng":32.075536,"ilce":"Polatli","il":"Ankara"},{"id":109,"adi":"ERCAN ŞİMŞEK","marka":"TERMOPET AKARYAKIT ANONİM ŞİRKETİ","adres":"Konya Yolu 40.  Km Ahiboz Beldesi / Köyü","lat":39.430299,"lng":32.868765,"ilce":"Gölbaşi","il":"Ankara"},{"id":110,"adi":"CE-KA PETROL TİCARET LİMİTED ŞİRKETİ","marka":"OPET","adres":"Odabaşı Mahallesi A.gaffar Okkan Bulvarı  No:7/1","lat":36.212884,"lng":36.168209,"ilce":"Antakya","il":"Hatay"},{"id":111,"adi":"MEHMET GÜNAY","marka":"TERMOPET AKARYAKIT ANONİM ŞİRKETİ","adres":"Bahçelievler Mahallesi Ankara-samsun Caddesi Mezbahane Karşısı","lat":41.126877,"lng":35.974609,"ilce":"Kavak","il":"Samsun"},{"id":112,"adi":"EZGİNLER PETROL TİCARET LİMİTED ŞİRKETİ","marka":"OPET","adres":"Karataş Yolu 20.km Solaklı Beldesi","lat":36.876271,"lng":35.346192,"ilce":"Yüreği̇r","il":"Adana"},{"id":113,"adi":"KAMAN DENİZCİLİK PETROL ÜRÜNLERİ PAZARLAMA NAKLİYAT VE TİCARET ANONİM ŞİRKETİ","marka":"OPET","adres":"Nisbetiye Mahallesi Barbaros Bulvarı  No:96 B","lat":41.069675,"lng":29.015175,"ilce":"Beşi̇ktaş","il":"İstanbul"},{"id":114,"adi":"SINIRLI SORUMLU TATKAVAKLI KARAYOLU YÜK TAŞIMA KOOPERATİFİ","marka":"OPET","adres":"Tatkavaklı Mahallesi Vehbi Koç Caddesi  No:82/2","lat":40.03922,"lng":28.361058,"ilce":"Mustafakemalpaşa","il":"Bursa"},{"id":115,"adi":"ESENKENT PETROL ÜRÜNLERİ PAZARLAMA TURİZM İNŞAAT SANAYİ VE TİCARET LİMİTED ŞİRKETİ","marka":"OPET","adres":"Aşık Veysel Mahallesi Cemalpaşa Caddesi  No:3","lat":41.055312,"lng":28.671916,"ilce":"Esenyurt","il":"İstanbul"},{"id":116,"adi":"ATEŞ AKARYAKIT DAĞITIM TİCARET ANONİM ŞİRKETİ","marka":"OPET","adres":"Osman Yılmaz Mahallesi İstanbul Caddesi  No:48","lat":40.791587,"lng":29.423595,"ilce":"Gebze","il":"Kocaeli̇"},{"id":117,"adi":"KOCAMAN AKARYAKIT İNŞAAT NAKLİYE TURİZM GIDA TAAHHÜT VE TİCARET LİMİTED ŞİRKETİ","marka":"OPET","adres":"Yayalar Mahallesi Cumhuriyet Caddesi  No:150","lat":40.49162,"lng":32.476536,"ilce":"Çamlidere","il":"Ankara"},{"id":118,"adi":"DİNÇLER AKARYAKIT KUYUMCULUK TARIM HIRDAVAT KERESTE SANAYİ ve TİCARET LİMİTED ŞİRKETİ","marka":"OPET","adres":"Kurudere Mahallesi Özgür Sokağı  No:11","lat":40.76601,"lng":30.358366,"ilce":"Karasu","il":"Sakarya"},{"id":119,"adi":"UTŞ GIDA İNŞAAT TEKSTİL PETROL VE AMBALAJ SANAYİ TİCARET LİMİTED ŞİRKETİ","marka":"OPET","adres":"Kemalpaşa Mahallesi Mimar Sinan Bulvarı  No:50A","lat":36.909428,"lng":34.887159,"ilce":"Tarsus","il":"Mersi̇n"},{"id":120,"adi":"AHMET EMİN ELGÜN","marka":"TERMOPET AKARYAKIT ANONİM ŞİRKETİ","adres":"Hacı Beldesi","lat":40.980511,"lng":26.550305,"ilce":"İpsala","il":"Edi̇rne"},{"id":121,"adi":"ÜÇ KARDEŞLER İNŞAAT PETROL ÜRÜNLERİ SANAYİ VE TİCARET LİMİTED ŞİRKETİ","marka":"OPET","adres":"Hasanpaşa Mahallesi Fatih Bulvarı No:64","lat":40.968076,"lng":29.253053,"ilce":"Sultanbeyli̇","il":"İstanbul"},{"id":122,"adi":"DOĞANCAN AKARYAKIT İNŞAAT GIDA TİCARET VE SANAYİ LİMİTED ŞİRKETİ","marka":"OPET","adres":"Şeker Mah. Ayaş Ankara Yolu Bulvarı No:108","lat":39.963846,"lng":32.652647,"ilce":"Eti̇mesgut","il":"Ankara"},{"id":123,"adi":"AYDIN AKARYAKIT TİCARET LİMİTED ŞİRKETİ","marka":"TERMOPET AKARYAKIT ANONİM ŞİRKETİ","adres":"Dedeler Köyü Karaçalı Dutluk Mevkii","lat":40.318812,"lng":30.89759,"ilce":"Göynük","il":"Bolu"},{"id":124,"adi":"İŞBAŞARANLAR OTOMOTİV SANAYİ VE TİCARET LİMİTED ŞİRKETİ","marka":"OPET","adres":"Istasyon Yolu Köprübaşı Mevkii Şükrüpaşa Kışlası Karşısı","lat":41.261803,"lng":26.687802,"ilce":"Uzunköprü","il":"Edi̇rne"},{"id":125,"adi":"DALAMAN ACARLAR GIDA MADDELERİ İNŞAAT NAKLİYAT OTO KOMİSYONCULUĞU AKARYAKIT LİKİT GAZ İTHALAT İHRACAT SANAYİ TİCARET VE TURİZM LİMİTED ŞİRKETİ","marka":"OPET","adres":"Yarankavak Mevkii Yanıklar KöyüYanıklar Köyü","lat":36.70626,"lng":29.052521,"ilce":"Fethi̇ye","il":"Muğla"},{"id":126,"adi":"HAS PETROL ÜRÜNLERİ TİCARET VE PAZARLAMA LİMİTED ŞİRKETİ","marka":"OPET","adres":"Muslihittin Mahallesi Atatürk Bulvarı Caddesi  No:87/1","lat":39.419955,"lng":29.985732,"ilce":"Merkez","il":"Muğla"},{"id":127,"adi":"İNPET OTOMOTİV PETROL İNŞAAT SANAYİ VE TİCARET ANONİM ŞİRKETİ","marka":"OPET","adres":"Beşevler Mahallesi  İzmir Yolu","lat":40.211219,"lng":28.974642,"ilce":"Ni̇lüfer","il":"Bursa"},{"id":128,"adi":"ÇİFTÇİOĞLU PETROL ÜRÜNLERİ LİMİTED ŞİRKETİ","marka":"OPET","adres":"Alacaatlı Beldesi / Köyü  No:66/1","lat":39.902025,"lng":38.896077,"ilce":"Refahi̇ye","il":"Erzi̇ncan"},{"id":129,"adi":"KARASU UYSAL PETROL SANAYİ VE TİCARET LİMİTED ŞİRKETİ","marka":"OPET","adres":"Kabakoz Mahallesi Vatan Caddesi Terminal Yanı No:10","lat":41.096425,"lng":30.682576,"ilce":"Karasu","il":"Sakarya"},{"id":130,"adi":"KOÇLAR PETROL PAZARLAMA VE NAKLİYAT LİMİTED ŞİRKETİ","marka":"OPET","adres":"Sütçüler Mahallesi Sütçüler Caddesi  No:210","lat":36.937144,"lng":30.720767,"ilce":"Kepez","il":"Antalya"},{"id":131,"adi":"AHMET AYIK PETROL İNŞAAT TURİZM SANAYİ VE TİCARET LİMİTED ŞİRKETİ","marka":"OPET","adres":"İvedik Caddesi  No:29","lat":39.962645,"lng":32.808726,"ilce":"Yeni̇mahalle","il":"Ankara"},{"id":132,"adi":"MEHMET ALİ SAVURAN","marka":"TERMOPET AKARYAKIT ANONİM ŞİRKETİ","adres":"Muttalip Köyü, Et Balık Kurumu Karşısı","lat":39.842331,"lng":30.55578,"ilce":"Merkez","il":"Eski̇şehi̇r"},{"id":133,"adi":"EKİM PETROL VE PETROL ÜRÜNLERİ HAYVANCILIK TARIM ÜRÜNLERİ İNŞAAT-TAŞIMACILIK OTOMOTİV SANAYİ VE TİCARET LİMTED ŞİRKETİ","marka":"TERMOPET AKARYAKIT ANONİM ŞİRKETİ","adres":"Çayırlı Mah. Mahallesi Çayırlı Sokak Sokağı  No:1","lat":40.263528,"lng":29.649,"ilce":"Yeni̇şehi̇r","il":"Bursa"},{"id":134,"adi":"ÜÇLER AKARYAKIT PETROL ÜRÜNLERİ PAZARLAMA TURİZM İNŞAAT VE TİCARET LİMİTED ŞİRKETİ","marka":"OPET","adres":"Cumhuriyet Mahallesi Çevre Yolu Reyhanlı Yol Kavşağı Caddesi  Mahmutlu","lat":36.262072,"lng":36.567615,"ilce":"Kirikhan","il":"Hatay"},{"id":135,"adi":"AÇIKDENİZ ALTERNATİF ENERJİ SİSTEMLERİ OTOMOTİV PAZARLAMA SANAYİ ve TİCARET LİMİTED ŞİRKETİ","marka":"OPET","adres":"Istiklal Mahallesi Bağlar Caddesi  No:95/A","lat":40.765866,"lng":30.360835,"ilce":"Serdi̇van","il":"Sakarya"},{"id":136,"adi":"MOBAY İNŞAAT NAKLİYAT PETROL GIDA TARIM GÜBRE SANAYİ VE TİCARET LİMİTED ŞİRKETİ","marka":"OPET","adres":"Varsaklar Mahallesi Adana Caddesi  No:270/a","lat":37.426957,"lng":35.789282,"ilce":"Kozan","il":"Adana"},{"id":137,"adi":"ŞAHİN PETROL TİCARET ANONİM ŞİRKETİ","marka":"OPET","adres":"Beytepe Lodumlu Köyü Eskişehir Devlet Yolu No:122","lat":39.766706,"lng":30.525631,"ilce":"Merkez","il":"Ankara"},{"id":138,"adi":"ATAK PETROL VE TİCARET ANONİM ŞİRKETİ","marka":"OPET","adres":"Gökevler Mahallesi 2317 Sokağı  No:13","lat":41.027035,"lng":28.626638,"ilce":"Esenyurt","il":"İstanbul"},{"id":139,"adi":"GÜLTEPE PETROL ÜRÜNLERİ SANAYİ VE TİCARET LİMİTED ŞİRKETİ","marka":"OPET","adres":"Atakent Mahallesi Mithatpaşa Caddesi  No:82/A","lat":41.023033,"lng":29.108294,"ilce":"Ümrani̇ye","il":"İstanbul"},{"id":140,"adi":"HAS PETROL ÜRÜNLERİ TİCARET VE PAZARLAMA LİMİTED ŞİRKETİ","marka":"OPET","adres":"Kızılağaç Mahallesi Kızılağaç Sokağı  No:653","lat":37.089397,"lng":28.360744,"ilce":"Ula","il":"Muğla"},{"id":141,"adi":"HURİYE GÖK","marka":"OPET","adres":"Selçuk Mahallesi  Hançerli","lat":40.412044,"lng":29.709072,"ilce":"İzni̇k","il":"Bursa"},{"id":142,"adi":"KERİMAN YILMAZ - YILMAZ PETROL","marka":"OPET","adres":"Yılmaz Petrol Yeşilova Mah Bozburun Beldesi","lat":36.683674,"lng":28.063119,"ilce":"Marmari̇s","il":"Muğla"},{"id":143,"adi":"KURUBAŞ PETROL NAKLİYAT TİCARET LİMİTED ŞİRKETİ","marka":"OPET","adres":"Yeni Mahallesi Pir Abdal Musa Caddesi  No:147","lat":36.730472,"lng":29.88152,"ilce":"Elmali","il":"Antalya"},{"id":144,"adi":"SÜZERLER PETROL ÜRÜNLERİ NARENCİYE İNŞAAT TURİZM OTOMOTİV SANAYİ VE TİCARET LİMİTED ŞİRKETİ","marka":"OPET","adres":"Akdeniz Mahallesi Alparslan Türkeş Bulvarı Güzeloluk Caddesi No:2","lat":36.601575,"lng":34.301772,"ilce":"Erdemli̇","il":"Mersi̇n"},{"id":145,"adi":"KURUBAŞ PETROL NAKLİYAT TİCARET LİMİTED ŞİRKETİ","marka":"OPET","adres":"Elmalı Yuva Karayolu Üzeri Yuva Beldesi","lat":36.730472,"lng":29.88152,"ilce":"Elmali","il":"Antalya"},{"id":146,"adi":"NUH ÖZTÜRK PETROL ÜRÜNLERİ NAKLİYE TAR.ÜRN.GIDA.TUR. SANAYİ TİCARET LİMİTED ŞİRKETİ","marka":"OPET","adres":"Konya Yolu 60 Km. Cimşit Köyü","lat":39.429138,"lng":32.869423,"ilce":"Gölbaşi","il":"Ankara"},{"id":147,"adi":"ÇAĞDAŞ PETROL ÜRÜNLERİ PAZARLAMA SANAYİ VE TİCARET LİMİTED ŞİRKETİ","marka":"OPET","adres":"Esenkent Gir. 2. Böl. Kapadık Mevkii Esenyurt","lat":41.066531,"lng":28.631267,"ilce":"Büyükçekmece","il":"İstanbul"},{"id":148,"adi":"KALEMŞAH AKARYAKIT NAKLİYAT TURİZM TİCARET VE SANAYİ ANONİM ŞİRKETİ","marka":"TERMOPET AKARYAKIT ANONİM ŞİRKETİ","adres":"Zübeyde Hanım Mahallesi Istanbul Caddesi No:104","lat":39.948853,"lng":32.838965,"ilce":"Altindağ","il":"Ankara"},{"id":149,"adi":"ÖZSÜT GIDA HAYVANCIIK VE PETROL ÜRÜNLERİ TURİZM SANAYİ VE TİCARET LİMİTED ŞİRKETİ","marka":"OPET","adres":"Köprübaşı Mahallesi  Köprübaşı Küme Evleri  No:212","lat":38.855062,"lng":35.852098,"ilce":"Bünyan","il":"Kayseri̇"},{"id":150,"adi":"FLZ AKARYAKIT ENERJİ ÜRETİM İNŞAAT NAKLİYAT SANAYİ VE TİCARET ANONİM ŞİRKETİ","marka":"OPET","adres":"Batı Sitesi Mahallesi Fatih Sultan Mehmet Bulvarı  No:536","lat":39.957606,"lng":32.690939,"ilce":"Yeni̇mahalle","il":"Ankara"},{"id":151,"adi":"ŞAHİN PETROL TİCARET ANONİM ŞİRKETİ","marka":"OPET","adres":"Iskitler Caddesi  No:40","lat":39.766706,"lng":30.525631,"ilce":"Merkez","il":"Ankara"},{"id":152,"adi":"BEYKOZ PETROL TAŞIMACILIK OTOMOTİV İNŞAAT TİCARET LİMİTED ŞİRKETİ","marka":"OPET","adres":"Samsun Devlet Yolu 24.km Caddesi  No:30","lat":39.912406,"lng":33.056391,"ilce":"Mamak","il":"Ankara"},{"id":153,"adi":"ÖZKARHAN KOLL.ŞTİ.-MAHMUT - ERDİNÇ KARHAN","marka":"OPET","adres":"Soğancı Köyü","lat":39.121449,"lng":27.179913,"ilce":"Bergama","il":"İzmi̇r"},{"id":154,"adi":"KARAMANOĞULLARI TARIM İNŞAAT PETROL ÜRÜNLERİ SANAYİ VE TİCARET LİMİTED ŞİRKETİ","marka":"OPET","adres":"Karşıyaka Mahallesi D-130karayolu Caddesi  No:4","lat":40.711285,"lng":29.948058,"ilce":"Başi̇skele","il":"Kocaeli̇"},{"id":155,"adi":"PETROLYAĞ PETROL YAĞLARI TİCARET VE SANAYİ ANONİM ŞİRKETİ","marka":"OPET","adres":"Şehitler Caddesi  No:161","lat":38.437034,"lng":27.162228,"ilce":"Konak","il":"İzmi̇r"},{"id":156,"adi":"PETROLYAĞ PETROL YAĞLARI TİCARET VE SANAYİ ANONİM ŞİRKETİ","marka":"OPET","adres":"Kemalpaşa Caddesi  No:21 Işıkkent","lat":38.42635,"lng":27.195358,"ilce":"Merkez","il":"İzmi̇r"},{"id":157,"adi":"ERDEM ANTALYA PETROL ÜRÜNLERİ TİCARET ANONİM ŞİRKETİ","marka":"OPET","adres":"Güvenlik Mahallesi Vatan Bulvarı  No:41","lat":36.91038,"lng":30.772529,"ilce":"Muratpaşa","il":"Antalya"},{"id":158,"adi":"ERDEM ANTALYA PETROL ÜRÜNLERİ TİCARET ANONİM ŞİRKETİ","marka":"OPET","adres":"Hurma Mahallesi Konyaaltı Bulvarı No.400/1","lat":36.885077,"lng":30.679791,"ilce":"Konyaalti","il":"Antalya"},{"id":159,"adi":"HMK AKARYAKIT TURİZM TİCARET LİMİTED ŞİRKETİ","marka":"OPET","adres":"Cumhuriyet Mahallesi Atatürk Caddesi  No:161/1","lat":37.943077,"lng":27.366435,"ilce":"Selçuk","il":"İzmi̇r"},{"id":160,"adi":"HESAPÇIOĞLU OTOMOTİV PETROL TURİZM TAŞIMACILIK İNŞAAT TARIM HAYVANCILIK TİCARET SANAYİ VE PAZARLAMA ANONİM ŞİRKETİ","marka":"OPET","adres":"Ermenek Mahallesi Kardeşkentler Caddesi  No:29","lat":36.895085,"lng":30.758208,"ilce":"Muratpaşa","il":"Antalya"},{"id":161,"adi":"C.I.T.Y. TURİZM TİCARET VE SANAYİ LİMİTED ŞİRKETİ","marka":"OPET","adres":"Koşuyolu Aksu Caddesi No: 40","lat":40.987788,"lng":28.883814,"ilce":"Bakirköy","il":"İstanbul"},{"id":162,"adi":"TOPÇUOĞLU MOBİLYA TİCARET VE SANAYİ LİMİTED ŞİRKETİ","marka":"TERMOPET AKARYAKIT ANONİM ŞİRKETİ","adres":"Ada Caddesi No.3 Taşkesti","lat":40.57581,"lng":31.014596,"ilce":"Mudurnu","il":"Bolu"},{"id":163,"adi":"YENİER GIDA KUYUMCULUK İNŞAAT TURİZM TİCARET VE SANAYİ LİMİTED ŞİRKETİ","marka":"OPET","adres":"Sahil Ağullu Köyü","lat":36.201321,"lng":29.64109,"ilce":"Kaş","il":"Antalya"},{"id":164,"adi":"ALPATA PETROL TİCARET LİMİTED ŞİRKETİ","marka":"OPET","adres":"Yeni Sanayi Sitesi Sanayi Caddesi No:11","lat":39.426215,"lng":29.967587,"ilce":"Merkez","il":"Kütahya"},{"id":165,"adi":"SEKVAN PETROL ÜRÜNLERİ SANAYİ ve TİCARET LİMİTED ŞİRKETİ","marka":"TERMOPET AKARYAKIT ANONİM ŞİRKETİ","adres":"Karpuzlu Köyü Mevkii Bekirhan","lat":38.122015,"lng":41.236513,"ilce":"Kozluk","il":"Batman"},{"id":166,"adi":"DALYAN PETROL AKARY.TİC SANAYİ VE TUR. LİMİTED ŞİRKETİ","marka":"OPET","adres":"Fethiye Karayolu Üzeri Gürköy","lat":36.787978,"lng":28.833701,"ilce":"Dalaman","il":"Muğla"},{"id":167,"adi":"NAMIK KEMAL YAY-PET TURİZM OTOMOTİV SANAYİ VE TİCARET LİMİTED ŞİRKETİ","marka":"OPET","adres":"Nusratlı Köyü Mevkii Malkara Yolu Üzeri 4. Km.","lat":40.946719,"lng":27.444229,"ilce":"Merkez","il":"Teki̇rdağ"},{"id":168,"adi":"ONUR DIŞ TİCARET LİMİTED ŞİRKETİ","marka":"OPET","adres":"Girne Mahallesi Narlıdere Caddesi  No:2","lat":40.942637,"lng":29.143874,"ilce":"Maltepe","il":"İstanbul"},{"id":169,"adi":"VOLKAN PETROLCÜLÜK ANONİM ŞİRKETİ","marka":"OPET","adres":"Uluyatır Mahallesi Asım Güzelbey Caddesi  No:27/ A","lat":37.427137,"lng":37.687677,"ilce":"Ni̇zi̇p","il":"Gazi̇antep"},{"id":170,"adi":"AYDIN PETROL TİCARET LİMİTED ŞİRKETİ","marka":"OPET","adres":"Yenidoğan Mahallesi  No:21 Samsun Yolu Üzeri","lat":39.921271,"lng":33.253766,"ilce":"Elmadağ","il":"Ankara"},{"id":171,"adi":"MNT-PET PETROL ÜRÜNLERİ TURİZM GIDA SANAYİ ve TİCARET LİMİTED ŞİRKETİ","marka":"OPET","adres":"Oğlananası Köyü","lat":38.265366,"lng":27.221609,"ilce":"Menderes","il":"İzmi̇r"},{"id":172,"adi":"TEMAR DENİZCİLİK VE TİCARET ANONİM ŞİRKETİ","marka":"OPET","adres":"Alaçatı Mahallesi 18000/1 Sokağı  No:4/a","lat":38.298111,"lng":26.284161,"ilce":"Çeşme","il":"İzmi̇r"},{"id":173,"adi":"SÜMER PETROL VE PETROL ÜRÜNLERİ İNŞAAT TURİZM NAKLİYE OTOMOTİV SANAYİ VE TİCARET LİMİTED ŞİRKETİ","marka":"OPET","adres":"Kazım Karabekir Mahallesi M.kemal Paşa Bulvarı No:172","lat":37.006963,"lng":35.347054,"ilce":"Yüreği̇r","il":"Adana"},{"id":174,"adi":"ALTINYAKIT PETROL İNŞAAT NAKLİYAT SANAYİ TİCARET LİMİTED ŞİRKETİ","marka":"OPET","adres":"Kayadibi Mahallesi  No:273/3 Kayadibi Küme Evleri","lat":39.943745,"lng":33.335775,"ilce":"Elmadağ","il":"Ankara"},{"id":175,"adi":"BAKIRDAĞ PETROL ÜRÜNLERİ DAĞITIM PAZARLAMA TİCARET VE SANAYİ LİMİTED ŞİRKETİ","marka":"OPET","adres":"Taşçı Köyü","lat":38.21565,"lng":35.80581,"ilce":"Develi̇","il":"Kayseri̇"},{"id":176,"adi":"OKUMUŞLAR PETROL VE TARIM ÜRÜNLERİ SANAYİ VE TİCARET LİMİTED ŞİRKETİ","marka":"TERMOPET AKARYAKIT ANONİM ŞİRKETİ","adres":"Cumhuriyet Mahallesi Eğitim Sokağı  No:15/A","lat":39.212767,"lng":29.869236,"ilce":"Aslanapa","il":"Kütahya"},{"id":177,"adi":"KAVPET AKARYAKIT VE SERVİS HİZMETLERİ TİCARET SANAYİ ANONİM ŞİRKETİ","marka":"OPET","adres":"Demirtaş Mahallesi İnönü Caddesi No:96","lat":40.228774,"lng":28.910699,"ilce":"Merkez","il":"Bursa"},{"id":178,"adi":"PIRIL PETROL SERVİS HİZMETLERİ NAK.VE TİCARET ANONİM ŞİRKETİ","marka":"OPET","adres":"İstiklal Mahallesi Piyalepaşa Bulvarı  No:20/A","lat":41.041997,"lng":28.967136,"ilce":"Beyoğlu","il":"İstanbul"},{"id":179,"adi":"TEMİZEL PETROL ÜRÜNLERİ İNŞAAT TAAHHÜT VE TİCARET LİMİTED ŞİRKETİ","marka":"OPET","adres":"Şehitler Mahallesi Atatürk Bulvarı No:230","lat":40.715167,"lng":29.830745,"ilce":"Gölcük","il":"Kocaeli̇"},{"id":180,"adi":"BAŞPET PETROL TURİZM GIDA TARIM ÜRÜNLERİ SANAYİ VE TİCARET ANONİM ŞİRKETİ","marka":"OPET","adres":"Izmir Asfaltı Üzeri No:123","lat":38.423734,"lng":27.142826,"ilce":"Merkez","il":"Deni̇zli̇"},{"id":181,"adi":"UĞURTAN PETROLCÜLÜK TARIM ORMAN SU ÜRÜNLERİ MADENCİLİK NAKLİYAT TURİZM İTHALAT İHRACAT SANAYİ VE TİCARET LİMİTED ŞİRKETİ","marka":"TERMOPET AKARYAKIT ANONİM ŞİRKETİ","adres":"Kavaklıdere Mahallesi Atatürk CaddesiÇamiçi Köyü","lat":37.442783,"lng":27.548117,"ilce":"Mi̇las","il":"Muğla"},{"id":182,"adi":"İSTANBUL ENERJİ SANAYİ VE TİCARET ANONİM ŞİRKETİ","marka":"OPET","adres":"Yalı Mahallesi Namık Kemal Caddesi  No:82","lat":41.002866,"lng":28.949906,"ilce":"Fati̇h","il":"İstanbul"},{"id":183,"adi":"AYŞE NAGEHAN SEZER","marka":"OPET","adres":"Hüseyinler Mahallesi Denizli Caddesi İğdeli Hamam Yöresi","lat":38.078356,"lng":29.400865,"ilce":"Çal","il":"Deni̇zli̇"},{"id":184,"adi":"DEVECİOĞULLARI PETROL ÜRÜNLERİ NAKLİYAT SANAYİ VE TİCARET LİMİTED ŞİRKETİ","marka":"OPET","adres":"Hisar Köyü Altı E-24 Yolu Üzeri","lat":37.175988,"lng":36.740587,"ilce":"Nurdaği","il":"Gazi̇antep"},{"id":185,"adi":"YÜKSEL PETROL ÜRÜNLERİ PAZARLAMA SANAYİ VE TİCARET LİMİTED ŞİRKETİ","marka":"OPET","adres":"Merkez Mahallesi . Bulvarı Darülaceze Caddesi  No:10/. .. Köyü","lat":41.064227,"lng":28.982141,"ilce":"Şi̇şli̇","il":"İstanbul"},{"id":186,"adi":"TAHİROĞULLARI PET. ÜRÜN. NAKLİYAT İNŞ. OTO. VE TAAH. SANAYİ TİCARET LİMİTED ŞİRKETİ","marka":"OPET","adres":"Bayındır Mahallesi Botaş Karşısı 5. Cadde No:357","lat":37.870801,"lng":41.159895,"ilce":"Merkez","il":"Batman"},{"id":187,"adi":"SARIHANLAR PETROL ÜRÜNLERİ SANAYİ ve TİCARET LİMİTED ŞİRKETİ","marka":"OPET","adres":"Eşme Mahallesi D-100 Karayolu Caddesi  No:737/A","lat":40.733833,"lng":30.223962,"ilce":"Kartepe","il":"Kocaeli̇"},{"id":188,"adi":"KARTALKAYA İNŞAAT - RENT A CAR SANAYİ VE TİCARET LİMİTED ŞİRKETİ","marka":"OPET","adres":"Alibey Mahallesi  Murat Çeşme Bağlar Yolu","lat":41.089461,"lng":28.866825,"ilce":"Si̇li̇vri̇","il":"İstanbul"},{"id":189,"adi":"ÖZ PETROL OTOMOTİV İNŞAAT TURİZM NAKLİYAT SANAYİ VE TİCARET LİMİTED ŞİRKETİ","marka":"OPET","adres":"Koru Mahallesi Dumlupınar Bulvarı  No:351","lat":39.899137,"lng":32.686882,"ilce":"Yeni̇mahalle","il":"Ankara"},{"id":190,"adi":"EMEK TİCARET LİMİTED ŞİRKETİ","marka":"OPET","adres":"Zafer Mahallesi Turan Caddesi  No:50/2","lat":39.575806,"lng":32.143003,"ilce":"Polatli","il":"Ankara"},{"id":191,"adi":"ERCAN PETROL VE TURİZM SANAYİ VE TİCARET LİMİTED ŞİRKETİ","marka":"TERMOPET AKARYAKIT ANONİM ŞİRKETİ","adres":"Esentepe Mahallesi Gaziantep Yolu Caddesi No:35 Burç Beldesi","lat":37.084891,"lng":37.429816,"ilce":"Şahi̇nbey","il":"Gazi̇antep"},{"id":192,"adi":"İPEK PETROL ÜRÜNLERİ PAZARLAMA NAKLİYE TURİZM SANAYİ VE TİCARET LİMİTED ŞİRKETİ","marka":"OPET","adres":"E-5 Karayolu Üzeri No:320 İncirlik","lat":36.991419,"lng":35.330829,"ilce":"Yüreği̇r","il":"Adana"},{"id":193,"adi":"KOCATEPE PETROL-ADEM KOCATEPE","marka":"OPET","adres":"Bekçiler Mahallesi Atatürk Caddesi  No:2/A","lat":36.647658,"lng":29.363618,"ilce":"Seydi̇kemer","il":"Muğla"},{"id":194,"adi":"NECİP İLHAN","marka":"TERMOPET AKARYAKIT ANONİM ŞİRKETİ","adres":"Mayıslar Köyü","lat":40.03803,"lng":30.664215,"ilce":"Saricakaya","il":"Eski̇şehi̇r"},{"id":195,"adi":"GÖREN PETROL TESİSLERİ SANAYİ VE TİCARET LİMİTED ŞİRKETİ","marka":"OPET","adres":"Değirmenönü Mahallesi Ankara Yolu Caddesi  No:800A","lat":40.197322,"lng":29.173179,"ilce":"Yildirim","il":"Bursa"},{"id":196,"adi":"NECİP İLHAN","marka":"TERMOPET AKARYAKIT ANONİM ŞİRKETİ","adres":"Bilali Habeşi Mah. Hürriyet Mah. No:213","lat":40.03803,"lng":30.664215,"ilce":"Saricakaya","il":"Eski̇şehi̇r"},{"id":197,"adi":"GÖNÜLLER PETROL OTOMOTİV TAŞIMACILIK SEBZE MEYVE VE SERVİS HİZMETLERİ TİCARET VE SANAYİ LİMİTED ŞİRKETİ","marka":"OPET","adres":"Şevket Sümer Mahallesi Okan Merzeci Bulvarı  No:121 Yeni Hal Üstü Pk33300","lat":36.829125,"lng":34.636641,"ilce":"Toroslar","il":"Mersi̇n"},{"id":198,"adi":"EŞREF KAYALI - KAYALI PETROL","marka":"TERMOPET AKARYAKIT ANONİM ŞİRKETİ","adres":"Çığlık Köyü","lat":37.036081,"lng":30.55553,"ilce":"Döşemealti","il":"Antalya"},{"id":199,"adi":"BÜYÜKÇAVUŞLU RÜYA TESİSLERİ PETROL GIDA VE TURİZM SANAYİ VE TİCARET LİMİTED ŞİRKETİ","marka":"OPET","adres":"Büyükçavuşlu Mahallesi Sungur Alp Caddesi  No:121","lat":41.237453,"lng":28.063459,"ilce":"Si̇li̇vri̇","il":"İstanbul"},{"id":200,"adi":"ÖZCAN AKARYAKIT NAKLİYAT VE TİCARET LİMİTED ŞİRKETİ","marka":"OPET","adres":"Inönü , Mahallesi, Istiklal Caddesi, Cöpköy Beldesi,","lat":41.218539,"lng":26.824386,"ilce":"Uzunköprü","il":"Edi̇rne"},{"id":201,"adi":"ÖZÜMİT PETROL NAKLİYE TAAHHÜT SANAYİ VE TİCARET LİMİTED ŞİRKETİ","marka":"TERMOPET AKARYAKIT ANONİM ŞİRKETİ","adres":"Yavuz Selim Mahallesi Körük Caddesi  No:74","lat":37.891183,"lng":41.153471,"ilce":"Merkez","il":"Batman"},{"id":202,"adi":"HASAN SÖNMEZ-SÖNMEZ PETROL","marka":"TERMOPET AKARYAKIT ANONİM ŞİRKETİ","adres":"Dumlupınar Köyü","lat":39.434232,"lng":32.495657,"ilce":"Haymana","il":"Ankara"},{"id":203,"adi":"TUNÇER PETROL İNŞAAT TAAHHÜT VE TURİZM İŞLETMECİLİĞİ SANAYİ VE TİCARET LİMİTED ŞİRKETİ","marka":"OPET","adres":"Cumhuriyet Bulvarı Bulvarı  Merkez İslamhaneleri Turgutreis  No:125/a","lat":37.032768,"lng":27.302742,"ilce":"Bodrum","il":"Muğla"},{"id":204,"adi":"MURAT LASTİK VE PETROL ÜRÜNLERİ NAKLİYE SANAYİ VE TİCARET LİMİTED ŞİRKETİ","marka":"OPET","adres":"Kalkancık Mahallesi  Kalkancık Küme Evler  No:154","lat":38.88745,"lng":35.136206,"ilce":"Kocasi̇nan","il":"Kayseri̇"},{"id":205,"adi":"GÖKÇEBEL BAŞAR PETROL ÜRÜNLERİ TAŞIMACILIK TURİZM TİCARET İTHALAT VE İHRACAT LİMİTED ŞİRKETİ","marka":"OPET","adres":"Dirmil Mahallesi İnönü Caddesi  No:156","lat":37.111222,"lng":27.322626,"ilce":"Bodrum","il":"Muğla"},{"id":206,"adi":"BURHANETTİN YAY","marka":"OPET","adres":"Hacıevhat Mahallesi Gürgen Mevkii Hayrabolu Yolu Üzeri","lat":40.89275,"lng":26.889384,"ilce":"Malkara","il":"Teki̇rdağ"},{"id":207,"adi":"ERDEMLİ BELEDİYESİ AKARYAKIT İSTASYONU VE MARKET İŞLETMESİ","marka":"OPET","adres":"Kumkuyu Mahallesi Silifke Caddesi  No:105B","lat":36.533516,"lng":34.224373,"ilce":"Erdemli̇","il":"Mersi̇n"},{"id":208,"adi":"BAUSAN BİNA PROJE ARAŞTIRMA SANAYİ ANONİM ŞİRKETİ","marka":"OPET","adres":"Kısıklı Mahallesi Akşemsettin Sokağı  No:1","lat":41.015992,"lng":29.092172,"ilce":"Üsküdar","il":"İstanbul"},{"id":209,"adi":"MANDIROĞLU MÜHENDİSLİK MİMARLIK ELEKTRONİK TEKSTİL OTOMOTİV TIBBİ CİHAZLAR SANAYİ VE DIŞ TİCARET LİMİTED ŞİRKETİ","marka":"OPET","adres":"Yukarı Yurtçu Mahallesi Yukarı Yurtiçi Serpmeleri No:78","lat":40.012933,"lng":32.740723,"ilce":"Yeni̇mahalle","il":"Ankara"},{"id":210,"adi":"İMAMOĞLU YALÇINLAR GIDA İNŞAAT PETROL TAŞIMACILIK TEMİZLİK HİZMETLERİ SANAYİ VE DIŞ TİCARET LİMİTED ŞİRKETİ","marka":"OPET","adres":"Aliçavuş Mahallesi (elki) Devlet Hastanesi Yanı","lat":37.569418,"lng":43.159138,"ilce":"Beytüşşebap","il":"Şirnak"},{"id":211,"adi":"ERCANLAR SAĞLIK KUYUMCULUK OTOMOTİV NAKLİYE PETROL GIDA İNŞAAT TURİZM SANAYİ VE TİCARET LİMİTED ŞİRKETİ","marka":"OPET","adres":"Istasyon Mahallesi E-90 Karayolu Üzeri Sanayi Sitesi Bitişiği No:56 (1113 Ada, 73 Pafta, 211 Parsel)","lat":38.251453,"lng":15.46652,"ilce":"Ni̇zi̇p","il":"Gazi̇antep"},{"id":212,"adi":"NURPET AKARYAKIT İNŞAAT SANAYİ VE TİCARET-GÖKSAL EKİNCİ","marka":"TERMOPET AKARYAKIT ANONİM ŞİRKETİ","adres":"Yahyalı Mahallesi Yahyalı Caddesi No:375/a","lat":40.688134,"lng":30.600771,"ilce":"Akyazi","il":"Sakarya"},{"id":213,"adi":"DEMİRTAŞ AKARY.DAĞ.TUR SANAYİ VE TİCARET LİMİTED ŞİRKETİ","marka":"OPET","adres":"Istasyon Mahallesi Güney Yan Yol Caddesi  No:172","lat":40.786543,"lng":29.423494,"ilce":"Gebze","il":"Kocaeli̇"},{"id":214,"adi":"MUSTAFA YEŞİL","marka":"OPET","adres":"Cumhuriyet CaddesiSolaklı Köyü","lat":36.808478,"lng":35.334303,"ilce":"Yüreği̇r","il":"Adana"},{"id":215,"adi":"MERMER UN SANAYİ AKARYAKIT PETROL ÜRÜNLERİ TİCARET LİMİTED ŞİRKETİ","marka":"OPET","adres":"Mermer Mahallesi","lat":40.942909,"lng":32.530509,"ilce":"Eski̇pazar","il":"Karabük"},{"id":216,"adi":"OKUMUŞLAR PETROL VE TARIM ÜRÜNLERİ SANAYİ VE TİCARET LİMİTED ŞİRKETİ","marka":"OPET","adres":"İnköy Mahallesi Eskişehir Karayolu Bulvarı  No:27","lat":39.446207,"lng":30.014517,"ilce":"Merkez","il":"Kütahya"},{"id":217,"adi":"OSMANLI PETROL NAKLİYAT SANAYİ VE TİCARET LİMİTED ŞİRKETİ","marka":"OPET","adres":"Ömerli Mahallesi Hadımköy - İstanbul Caddesi  No:235A","lat":41.15258,"lng":28.616603,"ilce":"Arnavutköy","il":"İstanbul"},{"id":218,"adi":"KUMRULAR YAPI MALZEMELERİ PETROL TİCARETİ LİMİTED ŞİRKETİ","marka":"OPET","adres":"Turgut Reis Mahallesi Demokrasi Caddesi No:221","lat":40.961119,"lng":29.28311,"ilce":"Sultanbeyli̇","il":"İstanbul"},{"id":219,"adi":"MUZAFFER FAKİOĞLU","marka":"OPET","adres":"Idebeli Mevkii Dörtyol-","lat":39.464667,"lng":33.525622,"ilce":"Çelebi̇","il":"Kirikkale"},{"id":220,"adi":"EMEKLİ PETROL ÜRÜNLERİ ZAHİRE NAKLİYAT İNŞAAT EMLAK TURİZM OTOMOTİV VE GIDA SANAYİ TİCARET LİMİTED ŞİRKETİ","marka":"TERMOPET AKARYAKIT ANONİM ŞİRKETİ","adres":"Konya Yolu 43. KmAhiboz Köyü Köyü","lat":39.488024,"lng":32.87022,"ilce":"Gölbaşi","il":"Ankara"},{"id":221,"adi":"CEMDUR PETROL AKARYAKIT OTO KOMİSYONCULUĞU HUBUBAT İNŞAAT GIDA GAYRİMENKUL TİCARET SANAYİ LİMİTED ŞİRKETİ","marka":"TERMOPET AKARYAKIT ANONİM ŞİRKETİ","adres":"Fethiye Yolu ÜzeriKışla Köyü Köyü","lat":36.746895,"lng":29.861422,"ilce":"Elmali","il":"Antalya"},{"id":222,"adi":"ADEM KOCATEPE","marka":"OPET","adres":"Karaçulha Mahallesi Dr. Devlet Bahçeli Bulvarı  No:1","lat":36.645842,"lng":29.176837,"ilce":"Fethi̇ye","il":"Muğla"},{"id":223,"adi":"HİKMET ERTURUN -İBİŞOĞLU PETROL AKARYAKIT","marka":"TERMOPET AKARYAKIT ANONİM ŞİRKETİ","adres":"Gencali Köyü","lat":39.8949,"lng":32.0025,"ilce":"Ayaş","il":"Ankara"},{"id":224,"adi":"ÇEŞME ARAS PETROL TURİZM İNŞAAT GIDA MEŞRUBAT VE MARKET İŞLETMECİLİĞİ SANAYİ VE TİCARET LİMİTED ŞİRKETİ","marka":"OPET","adres":"Inönü Mahallesi Izmir Caddesi No:40","lat":38.315124,"lng":26.346249,"ilce":"Çeşme","il":"İzmi̇r"},{"id":225,"adi":"SEA CYLİNDER PETROL TİCARET SANAYİ LİMİTED ŞİRKETİ","marka":"TERMOPET AKARYAKIT ANONİM ŞİRKETİ","adres":"Çeltikçi Mahallesi Çeltikçi Sokağı Dış Kapı No:151/3","lat":40.190035,"lng":29.059502,"ilce":"Yeni̇şehi̇r","il":"Bursa"},{"id":226,"adi":"BÜYÜKHANLI KARDEŞLER İNŞ. TUR. VE TİCARET ANONİM ŞİRKETİ","marka":"OPET","adres":"Ssimon Bolivar Caddesi No:32/b","lat":39.878959,"lng":32.862228,"ilce":"Çankaya","il":"Ankara"},{"id":227,"adi":"CEM PETROL OTOMOTİV VE TURİZM TİCARET ANONİM ŞİRKETİ","marka":"OPET","adres":"Sarıışık Mahallesi, Sarıışık Çiftlik Sokak No:19","lat":41.285855,"lng":36.186606,"ilce":"Atakum","il":"Samsun"},{"id":228,"adi":"KARACAN OTOMOTİV PETROL ÜRÜNLERİ TİCARET VE SANAYİ ANONİM ŞİRKETİ","marka":"OPET","adres":"Ertuğrulgazi Mahallesi  Çevre Yolu  No:475","lat":39.781249,"lng":30.487942,"ilce":"Tepebaşi","il":"Eski̇şehi̇r"},{"id":229,"adi":"ORSA PETROL ÜRÜNLERİ SANAYİ VE TİCARET LİMİTED ŞİRKETİ","marka":"OPET","adres":"Subaşı Mahallesi Gökçeali Caddesi  No:343/A","lat":41.202714,"lng":28.444874,"ilce":"Çatalca","il":"İstanbul"},{"id":230,"adi":"SEYHAN AKARYAKIT TAŞIMACILIK İNŞAAT TURİZM SANAYİ VE TİCARET LİMİTED ŞİRKETİ","marka":"OPET","adres":"Yalınayak Mah. Soda Hal Caddesi, No:10/a","lat":36.839691,"lng":34.647371,"ilce":"Toroslar","il":"Mersi̇n"},{"id":231,"adi":"İMGA TURİZM VE PETROL ÜRÜNLERİ TİCARET LİMİTED ŞİRKETİ","marka":"OPET","adres":"Akçaburgaz Mahallesi Hadımköy Yolu No:52","lat":41.050305,"lng":28.628605,"ilce":"Esenyurt","il":"İstanbul"},{"id":232,"adi":"BAŞTAŞ OTOMOTİV SANAYİ VE TİCARET ANONİM ŞİRKETİ","marka":"OPET","adres":"Vefa Mahallesi Kütahya Eskişehir Karayolu No:18","lat":39.455067,"lng":30.066524,"ilce":"Merkez","il":"Kütahya"},{"id":233,"adi":"GÖKOĞLU PETROL ÜRÜNLERİ NAKLİYAT GIDA TURİZM SANAYİ VE TİCARET LİMİTED ŞİRKETİ","marka":"TERMOPET AKARYAKIT ANONİM ŞİRKETİ","adres":"Emniyet Mahallesi Atatürk Bulvarı  No:109 Dağbeli Kasabası","lat":37.023026,"lng":30.601209,"ilce":"Döşemealti","il":"Antalya"},{"id":234,"adi":"SINIRLI SORUMLU ÇORLU KOORDİNE SANAYİ SİTESİ İŞLETME KOOPERATİFİ","marka":"OPET","adres":"Zafer Mahallesi Salih Omurtak Caddesi  No:3","lat":41.15077,"lng":27.837478,"ilce":"Çorlu","il":"Teki̇rdağ"},{"id":235,"adi":"SEYHAN AKARYAKIT TAŞIMACILIK İNŞAAT TURİZM SANAYİ VE TİCARET LİMİTED ŞİRKETİ","marka":"OPET","adres":"Bilalköy Mahallesi Bilalköy-ankara Karayolu Caddesi  No:6","lat":40.0691,"lng":29.585,"ilce":"İnegöl","il":"Bursa"},{"id":236,"adi":"SEFA KUYUMCULUK İNŞAAT TİCARET TURİZM LİMİTED ŞİRKETİ","marka":"OPET","adres":"Yeni Mahallesi Değirmenönü Sokağı  No:31","lat":36.598497,"lng":30.54574,"ilce":"Kemer","il":"Antalya"},{"id":237,"adi":"ÖZCAN NAKLİYAT ZAHİRECİLİK PETROL ÜRÜNLERİ VE İNŞAAT TAAHHÜT TİCARET LİMİTED ŞİRKETİ","marka":"OPET","adres":"Konya Yolu 53. Km.  Bezirhane","lat":39.4291,"lng":32.869009,"ilce":"Gölbaşi","il":"Ankara"},{"id":238,"adi":"MARAŞ GIDA PAZARLAMA AKARYAKIT ÜRÜNLERİ İNŞAAT TURİZM SANAYİ VE SOSYAL HİZMETLER TİCARET LİMİTED ŞİRKETİ","marka":"TERMOPET AKARYAKIT ANONİM ŞİRKETİ","adres":"Ereğli Mahallesi Barbaros Hayrettin Bulvarı No:258","lat":37.575275,"lng":36.922822,"ilce":"Karamürsel","il":"Kocaeli̇"},{"id":239,"adi":"YALIN PETROL ÜRÜNLERİ NAKLİYAT VE TURİZM TİCARET LİMİTED ŞİRKETİ","marka":"OPET","adres":"Yalıncak Mahallesi Yalıncak Rize Caddesi  No:106","lat":40.991501,"lng":39.796124,"ilce":"Ortahi̇sar","il":"Trabzon"},{"id":240,"adi":"SÜLEYMAN SEVİMLİ PETROL TURİZM NAKLİYAT İNŞAAT GIDA SANAYİ VE TİCARET LİMİTED ŞİRKETİ","marka":"OPET","adres":"Portakallık Mahallesi Menderes Bulvarı  No:434","lat":41.031653,"lng":40.555488,"ilce":"Merkez","il":"Ri̇ze"},{"id":241,"adi":"TOLU TUZ NAKLİYE PETROL İNŞAAT TURİZM OTOMOTİV SANAYİ VE TİCARET LİMİTED ŞİRKETİ","marka":"OPET","adres":"Mustafacık Mahallesi E-90 Karayolu 2. Km.","lat":37.227286,"lng":39.761837,"ilce":"Şerefli̇koçhi̇sar","il":"Ankara"},{"id":242,"adi":"BABA PETROL ÜRÜNLERİ TİCARET PAZARLAMA TURİZM SEYAHAT GIDA VE İNŞAAT LİMİTED ŞİRKETİ","marka":"OPET","adres":"KulmanYAZIR KÖYÜ","lat":37.015512,"lng":30.288171,"ilce":"Korkuteli̇","il":"Antalya"},{"id":243,"adi":"KADRİ ÇİÇEKLİDAĞ","marka":"OPET","adres":"75.yıl Mahallesi G.m.k. Bulvarı  No:1008/A","lat":36.729398,"lng":34.50858,"ilce":"Mezi̇tli̇","il":"Mersi̇n"},{"id":244,"adi":"SELCAN OTOMOTİV SANAYİ VE DIŞ TİCARET LİMİTED ŞİRKETİ","marka":"OPET","adres":"Uzunyusuf Mahallesi Silivrikapı Caddesi Vani Dergah Sokağı  No:1","lat":41.009457,"lng":28.928483,"ilce":"Fati̇h","il":"İstanbul"},{"id":245,"adi":"SEV-TAŞ PETROL İSMAİL SEVİNÇ VE YUSUF AKTAŞ KOLLEKTİF ŞİRKETİ","marka":"TERMOPET AKARYAKIT ANONİM ŞİRKETİ","adres":"Çiftlikköy Mahallesi Sultan Süleyman Caddesi  Orta Değirmen","lat":41.340521,"lng":28.407149,"ilce":"Çatalca","il":"İstanbul"},{"id":246,"adi":"SELKA OTOMOTİV PETROL ÜRÜNLERİ TİCARET VE SANAYİ LİMİTED ŞİRKETİ","marka":"OPET","adres":"71 Evler Mahallesi Alpuyolu No:150","lat":39.76487,"lng":30.598581,"ilce":"Merkez","il":"Eski̇şehi̇r"},{"id":247,"adi":"NETSEL TURİZM YATIRIMLARI ANONİM ŞİRKETİ","marka":"OPET","adres":"Sarıana Mahallesi Mustafa Münir Elgin Bulvarı No: 38/2 (ada: 236, Pafta: 17.18/1 Parsel: 5)","lat":36.854936,"lng":28.270878,"ilce":"Marmari̇s","il":"Muğla"},{"id":248,"adi":"DOĞU AKDENİZ PETROL ÜRÜNLERİ TAŞIMACILIK İTHALAT İHRACAT DAHİLİ TİCARET LİMİTED ŞİRKETİ","marka":"OPET","adres":"Güzelburç Mahallesi E-5 Karayolu Caddesi  No:166","lat":36.254128,"lng":36.192548,"ilce":"Merkez","il":"Hatay"},{"id":249,"adi":"EDİRNE AKARYAKIT ÜRÜNLERİ VE PETROL HAYVANCILIK İNŞAAT MADENCİLİK SANAYİ TİCARET LİMİTED ŞİRKETİ","marka":"OPET","adres":"Kocasinan Mahallesi Atatürk Bulvarı  No:137/1","lat":41.67438,"lng":26.558864,"ilce":"Merkez","il":"Edi̇rne"},{"id":250,"adi":"ÖZTOK TARIM AKARYAKIT İNŞAAT NAKLİYAT SANAYİ TİCARET LİMİTED ŞİRKETİ","marka":"OPET","adres":"ÇukurköprüFaydalı","lat":37.339662,"lng":35.911964,"ilce":"Kozan","il":"Adana"},{"id":251,"adi":"CEBECİ PETROL TURİZM VE TİCARET LİMİTED ŞİRKETİ","marka":"OPET","adres":"İstasyon Mahallesi Inönü Caddesi  No:43","lat":41.275685,"lng":27.988559,"ilce":"Çerkezköy","il":"Teki̇rdağ"},{"id":252,"adi":"SEDAT İLGİ PETROL TURZ. İNŞ. SANAYİ ve TİCARET LİMİTED ŞİRKETİ","marka":"OPET","adres":"Ayrancılar Mahallesi İzmir Aydın Caddesi  No:52","lat":38.238244,"lng":27.280743,"ilce":"Torbali","il":"İzmi̇r"},{"id":253,"adi":"TOPÇULAR AKARYAKIT HAYVANCILIK TARIM MAHRUKAT NAKLİYAT TİCARET LİMİTED ŞİRKETİ","marka":"OPET","adres":"Nasuhpaşa Mahallesi 9. Caddesi  No:21 Ankara-istanbul Devlet Yolu","lat":39.933363,"lng":32.859742,"ilce":"Nallihan","il":"Ankara"},{"id":254,"adi":"KARABÜK ANADOLU PETROL VE TURİZM SEYEHAT LİMİTED ŞİRKETİ","marka":"OPET","adres":"Kurtuluş Mahallesi Şehit Ateşe Reşat Moralı Bulvarı  No:26","lat":41.216457,"lng":32.647607,"ilce":"Merkez","il":"Karabük"},{"id":255,"adi":"GÜVEN AKARYAKIT VE PETROL ÜRÜNLERİ TURİZM İNŞAAT PAZARLAMA TİCARET SANAYİ İHRACAT İTHALAT LİMİTED ŞİRKETİ","marka":"OPET","adres":"Sarıağaç Mahallesi  D-400 Karayolu KenarıKahyalar Köyü","lat":36.268562,"lng":32.314304,"ilce":"Gazi̇paşa","il":"Antalya"},{"id":256,"adi":"KAMPET PETROL ÜRÜNLERİ DAĞITIM PAZARLAMA VE TİCARET ANONİM ŞİRKETİ","marka":"OPET","adres":"Merkez Mahallesi Abide-i Hürriyet Caddesi  No:144","lat":41.065813,"lng":28.98763,"ilce":"Şi̇şli̇","il":"İstanbul"},{"id":257,"adi":"HIZIR PETROL VE TARIM ÜRÜNLERİ GIDA NAKLİYE SANAYİ VE TİCARET ANONİM ŞİRKETİ","marka":"OPET","adres":"Anbar Mahallesi Osman Kavuncu Bulvarı  No:560","lat":38.75341,"lng":35.3391,"ilce":"Meli̇kgazi̇","il":"Kayseri̇"},{"id":258,"adi":"ÖZ-AY PETROL İNŞAAT SANAYİ MÜHENDİSLİK TURİZM İÇ VE DIŞ TİCARET LİMİTED ŞİRKETİ","marka":"OPET","adres":"İstiklal Mahallesi Ankara Yolu Caddesi  No:111","lat":40.198498,"lng":29.195588,"ilce":"Gürsu","il":"Bursa"},{"id":259,"adi":"ÇETAY AKAR. TİCARET VE İNŞ. LİMİTED ŞİRKETİ","marka":"OPET","adres":"Halil Rıfat Paşa Mahallesi Piyale Paşa Bulvarı Arel Çıkmazı No:1 Pafta:279/1 Ada:2487 Parsel:388 Mahallesi","lat":41.058372,"lng":28.968875,"ilce":"Şi̇şli̇","il":"İstanbul"},{"id":260,"adi":"DEMSÖZ PETROL KERESTE İNŞAAT YEM ZAHİRE PAZARLAMA SANAYİ TİCARET LİMİTED ŞİRKETİ","marka":"TERMOPET AKARYAKIT ANONİM ŞİRKETİ","adres":"Ambarcı Mahallesi  No:3/B Ambarcı Merkez Mevki","lat":40.883721,"lng":30.198375,"ilce":"İzmi̇t","il":"Kocaeli̇"},{"id":261,"adi":"KALE MADENCİLİK SANAYİ VE TİCARET ANONİM ŞİRKETİ","marka":"OPET","adres":"Cumhuriyet Mahallesi Mimar Sinan Caddesi  No:30/7Yenimuhacir Köyü","lat":40.857938,"lng":26.694087,"ilce":"Keşan","il":"Edi̇rne"},{"id":262,"adi":"GAZİKENT PETROL AKARYAKIT VE OTOMOTİV SANAYİ VE TİCARET ANONİM ŞİRKETİ","marka":"OPET","adres":"Karaca Ahmet Mahallesi 38004 Nolu Caddesi  No:27","lat":37.086674,"lng":37.445726,"ilce":"Şehi̇tkami̇l","il":"Gazi̇antep"},{"id":263,"adi":"DOĞAN YILDIRIM","marka":"TERMOPET AKARYAKIT ANONİM ŞİRKETİ","adres":"Dorumlar Köyü Gediz Beldesi","lat":37.127563,"lng":30.881164,"ilce":"Seri̇k","il":"Antalya"},{"id":264,"adi":"KARACAN OTOMOTİV PETROL ÜRÜNLERİ TİCARET VE SANAYİ ANONİM ŞİRKETİ","marka":"OPET","adres":"Çarşı Mahallesi  Karacan Petrol Sahası  No:3","lat":39.816629,"lng":30.143932,"ilce":"İnönü","il":"Eski̇şehi̇r"},{"id":265,"adi":"FOÇALILAR PET. DENİZ NAKLİYAT SANAYİ ve TİCARET LİMİTED ŞİRKETİ","marka":"OPET","adres":"Mithatpaşa Caddesi No: 237","lat":38.394081,"lng":27.010949,"ilce":"Narlidere","il":"İzmi̇r"},{"id":266,"adi":"KARDEŞLER PETROL ÜRÜNLERİ KIRTASİYECİLİK TİCARET VE SANAYİ LİMİTED ŞİRKETİ","marka":"OPET","adres":"E-1 Karayolu Üzeri CaddesiTaşkesti Köyü","lat":40.574624,"lng":31.017259,"ilce":"Mudurnu","il":"Bolu"},{"id":267,"adi":"ALEV PETROL SERVİS HİZMETLERİ NAKLİYAT VE TİCARET ANONİM ŞİRKETİ","marka":"OPET","adres":"Münir Nurettin Selçuk Caddesi  No:17/9/A","lat":40.976523,"lng":29.040387,"ilce":"Kadiköy","il":"İstanbul"},{"id":268,"adi":"ALEV PETROL SERVİS HİZMETLERİ NAKLİYAT VE TİCARET ANONİM ŞİRKETİ","marka":"OPET","adres":"Kuruçeşme Mahallesi Muallim Naci Caddesi  No:85","lat":41.056792,"lng":29.034514,"ilce":"Beşi̇ktaş","il":"İstanbul"},{"id":269,"adi":"MARAŞ GIDA PAZARLAMA AKARYAKIT ÜRÜNLERİ İNŞAAT TURİZM SANAYİ VE SOSYAL HİZMETLER TİCARET LİMİTED ŞİRKETİ","marka":"TERMOPET AKARYAKIT ANONİM ŞİRKETİ","adres":"Malkara Caddesi","lat":40.615159,"lng":27.113649,"ilce":"Şarköy","il":"Teki̇rdağ"},{"id":270,"adi":"FİKRET PETROL ÜRÜNLERİ PAZARLAMA SANAYİ VE TİCARET ANONİM ŞİRKETİ","marka":"OPET","adres":"Fakülteler Mahallesi Cemal Gürsel Caddesi  No:27","lat":39.928567,"lng":32.868324,"ilce":"Çankaya","il":"Ankara"},{"id":271,"adi":"UZUNKUM ORHAN PETROL TİCARET LİMİTED ŞİRKETİ","marka":"OPET","adres":"2 Nolu Beşirli Mahallesi Devlet Sahil Yolu Caddesi  No:150","lat":40.698192,"lng":30.31137,"ilce":"Ortahi̇sar","il":"Trabzon"},{"id":272,"adi":"ŞENGÜN PETROL NAKLİYAT VE TURİZM LİMİTED ŞİRKETİ","marka":"OPET","adres":"Cumapazarı","lat":40.837469,"lng":40.262372,"ilce":"Of","il":"Trabzon"},{"id":273,"adi":"SEYHAN AKARYAKIT TAŞIMACILIK İNŞAAT TURİZM SANAYİ VE TİCARET LİMİTED ŞİRKETİ","marka":"OPET","adres":"Yenikent Mahallesi, Yenikent Küme, No: 8","lat":39.749249,"lng":30.525031,"ilce":"Odunpazari","il":"Eski̇şehi̇r"},{"id":274,"adi":"BOR-PET AKAR.NAK.İNŞ.TUR.SANAYİ ve TİCARET LİMİTED ŞİRKETİ","marka":"OPET","adres":"Sakarya Cad. No:67","lat":38.456798,"lng":27.185599,"ilce":"Bayrakli","il":"İzmi̇r"},{"id":275,"adi":"ÖZTÜRKLER PETROL SANAYİ VE TİCARET ANONİM ŞİRKETİ","marka":"OPET","adres":"Sayköyü Ziyarettepe Mevkii Otoyol Içi Bila/","lat":36.940863,"lng":34.787558,"ilce":"Tarsus","il":"Mersi̇n"},{"id":276,"adi":"ARTEZYEN PETROL VE TİCARET LİMİTED ŞİRKETİ","marka":"OPET","adres":"Tekandız Mevkii Manavgat-alanya Karayolu 7.km.","lat":36.786808,"lng":31.441323,"ilce":"Manavgat","il":"Antalya"},{"id":277,"adi":"BAFRA PETROL ÜRÜNLERİ SANAYİ VE TİCARET LİMİTED ŞİRKETİ","marka":"OPET","adres":"Köprübaşı Mahallesi Gaziosmanpaşa Caddesi No:4 Çetinkaya Beldesi","lat":41.580382,"lng":35.913152,"ilce":"Bafra","il":"Samsun"},{"id":278,"adi":"SEZER PETROL İNŞAAT NAKLİYAT DAYANIKLI TÜKETİM MALLARI SANAYİ VE TİCARET LİMİTED ŞİRKETİ","marka":"OPET","adres":"Akşemsettin Mahallesi Fatih Bulvarı  No:598","lat":40.942317,"lng":29.300711,"ilce":"Sultanbeyli̇","il":"İstanbul"},{"id":279,"adi":"S.S. ÇOMAKLI TARIMSAL KALKINMA KOOPERATİFİ","marka":"TERMOPET AKARYAKIT ANONİM ŞİRKETİ","adres":"Çomaklı Kasabası Kocaçeşme Mahallesi Antalya Caddesi  No:52/A","lat":37.064148,"lng":30.202725,"ilce":"Korkuteli̇","il":"Antalya"},{"id":280,"adi":"MEHMET KALKAN-KALKAN PETROL","marka":"OPET","adres":"Güneyyurt Mahallesi Zindan Alanı Bölge Trafik Karşısı Ören Beldesi","lat":36.042039,"lng":32.806698,"ilce":"Anamur","il":"Mersi̇n"},{"id":281,"adi":"HALİLOĞLU PETROL ÜRÜNLERİ PAZARLAMA SANAYİ VE TİCARET LİMİTED ŞİRKETİ","marka":"OPET","adres":"Yalıboyu Mahallesi Atatürk Bulvarı  No:55","lat":40.951613,"lng":40.013463,"ilce":"Arakli","il":"Trabzon"},{"id":282,"adi":"KÜÇÜKYAMAN PETROL TARIM ÜRÜN. İNŞ. MALZ. FENNİ GÜBRE SANAYİ ve TİCARET LİMİTED ŞİRKETİ","marka":"TERMOPET AKARYAKIT ANONİM ŞİRKETİ","adres":"beyendik Köyü","lat":40.928158,"lng":26.572493,"ilce":"Keşan","il":"Edi̇rne"},{"id":283,"adi":"AKLAN ULUSLARARASI NAKLİYAT İNŞAAT TURİZM GIDA PETROL SANAYİ VE TİCARET LİMİTED ŞİRKETİ","marka":"OPET","adres":"Samsun Yolu 25. Km Lalahan","lat":39.957225,"lng":33.079341,"ilce":"Elmadağ","il":"Ankara"},{"id":284,"adi":"ALTINBAŞAK UN İRMİK VE YEM SANAYİ VE TİCARET ANONİM ŞİRKETİ","marka":"TERMOPET AKARYAKIT ANONİM ŞİRKETİ","adres":"Arslançayı Köyü","lat":41.057972,"lng":35.734699,"ilce":"Havza","il":"Samsun"},{"id":285,"adi":"KARTEPE PETROL ÜRÜNLERİ TİCARET LİMİTED ŞİRKETİ","marka":"OPET","adres":"Yeşilırmak Mahallesi Yeni Samsun Caddesi  No:135","lat":41.206905,"lng":36.712729,"ilce":"Çarşamba","il":"Samsun"},{"id":286,"adi":"ÖZATAKÖY PETROL İNŞAAT VE NAKLİYAT SANAYİ VE TİCARET LİMİTED ŞİRKETİ","marka":"TERMOPET AKARYAKIT ANONİM ŞİRKETİ","adres":"Gerenli Köyü","lat":39.400359,"lng":31.251939,"ilce":"Si̇vri̇hi̇sar","il":"Eski̇şehi̇r"},{"id":287,"adi":"ÖZTÜRK KARDEŞLER KOLLEKTİF ŞİRKETİ NECATİ KURT  REŞAT KURT  MURAT KURT","marka":"TERMOPET AKARYAKIT ANONİM ŞİRKETİ","adres":"Fevzi Çakmak Mahallesi Cengiz Topel Caddesi  No:148/A","lat":41.069623,"lng":28.903143,"ilce":"Gazi̇osmanpaşa","il":"İstanbul"},{"id":288,"adi":"TEKNOPET PETROL ÜRÜNLERİ GIDA TURİZM NAKLİYAT SANAYİ VE TİCARET LİMİTED ŞİRKETİ","marka":"OPET","adres":"Samurlu Mahallesi Aliağa Cad. No:45","lat":38.799561,"lng":26.97074,"ilce":"Ali̇ağa","il":"İzmi̇r"},{"id":289,"adi":"BURCU TURİZM TİCARET LİMİTED ŞİRKETİ","marka":"OPET","adres":"Hacet Mahallesi Eşref Kahvecioğlu Caddesi  Anadolu Lisesi Karşısı","lat":36.551492,"lng":32.007095,"ilce":"Merkez","il":"Antalya"},{"id":290,"adi":"TİRE DAMLA PETROL ÜRÜNLERİ TURİZM İNŞAAT TİCARET VE SANAYİ LİMİTED ŞİRKETİ","marka":"OPET","adres":"Ihsaniye Mahallesi  No:4/1 Benlitepe Mevkii Gökçen Yolu","lat":38.093522,"lng":27.743562,"ilce":"Ti̇re","il":"İzmi̇r"},{"id":291,"adi":"FİKRET PETROL ÜRÜNLERİ PAZARLAMA SANAYİ VE TİCARET ANONİM ŞİRKETİ","marka":"OPET","adres":"Bahçekapı Mahallesi 6 Caddesi  No:26","lat":39.93597,"lng":32.712667,"ilce":"Eti̇mesgut","il":"Ankara"},{"id":292,"adi":"MAVİ BEYAZ AKARYAKIT İNŞAAT PETROL PAZARLAMA SANAYİ VE TİCARET ANONİM ŞİRKETİ","marka":"OPET","adres":"Uğur Mumcu Mahallesi Batı Bulvarı  No:34/A","lat":39.948267,"lng":32.747443,"ilce":"Yeni̇mahalle","il":"Ankara"},{"id":293,"adi":"ASIM VE İKİZOĞULLARI PETROL ÜRÜNLERİ OTOMOTİV GIDA VE İNŞAAT SANAYİ VE TİCARET LİMİTED ŞİRKETİ","marka":"OPET","adres":"Inönü Mah. Atatürk Cad. No:143 Sarıgazi Beld. Köyü","lat":41.00857,"lng":29.215034,"ilce":"Ümrani̇ye","il":"İstanbul"},{"id":294,"adi":"ALSEVİN PETROL ÜRÜNLERİ DAYANIKLI TÜKETİM MALZEMELERİ TURİZM TAŞIMACILIK MAKİNA OTOMOTİV SANAYİ İTHALAT İHRACAT TİCARET LİMİTED ŞİRKETİ","marka":"OPET","adres":"Belediyeevleri Mahallesi Türkmenbaşı Bulvarı  No:37","lat":37.036066,"lng":35.273041,"ilce":"Çukurova","il":"Adana"},{"id":295,"adi":"MAVİ BEYAZ AKARYAKIT İNŞAAT PETROL PAZARLAMA SANAYİ VE TİCARET ANONİM ŞİRKETİ","marka":"OPET","adres":"Ören Mahallesi Atatürk (yalı) Bulvarı  No:163/32A","lat":37.311638,"lng":27.780795,"ilce":"Mi̇las","il":"Muğla"},{"id":296,"adi":"DALGIÇLAR PETROL TİCARET VE SANAYİ LİMİTED ŞİRKETİ","marka":"OPET","adres":"Muratçeşme Mahallesi E-5 Londra Asfaltı Caddesi  No:110","lat":41.0172,"lng":28.888166,"ilce":"Büyükçekmece","il":"İstanbul"},{"id":297,"adi":"KÖKCÜOĞULLARI PETROL NAKLİYAT İNŞAAT TARIM VE GIDA ÜRÜNLERİ SANAYİ VE TİCARET LİMİTED ŞİRKETİ","marka":"TERMOPET AKARYAKIT ANONİM ŞİRKETİ","adres":"Allı Mahallesi Arım Sokak No:6","lat":41.293802,"lng":36.326038,"ilce":"Çarşamba","il":"Samsun"},{"id":298,"adi":"SEL PETROL İNŞAAT GIDA VE MADENCİLİK SANAYİ TİCARET LİMİTED ŞİRKETİ","marka":"OPET","adres":"Çınardere Mahallesi Ankara Caddesi  No:53","lat":40.895873,"lng":29.24974,"ilce":"Pendi̇k","il":"İstanbul"},{"id":299,"adi":"GÜNDOĞDU PETROL ZAHİRE SANAYİ VE TİCARET LİMİTED ŞİRKETİ","marka":"OPET","adres":"Beyköy Beldesi / Köyü Cumhuriyet Mahallesi 1. Caddesi  No:115-G","lat":40.828087,"lng":31.137164,"ilce":"Merkez","il":"Düzce"},{"id":300,"adi":"GÜNEY BELEDİYESİ AKARYAKIT SATIŞ İSTASYONU FON İŞLETMESİ","marka":"OPET","adres":"Yağcılar Mahallesi  D.s.i. Yol Kavşağı","lat":38.153415,"lng":29.064655,"ilce":"Güney","il":"Deni̇zli̇"},{"id":301,"adi":"ŞÜKRÜ GÜLER","marka":"TERMOPET AKARYAKIT ANONİM ŞİRKETİ","adres":"Elmalı Karayolu Üzeri Yuva Beldesi","lat":36.7155,"lng":29.764268,"ilce":"Elmali","il":"Antalya"},{"id":302,"adi":"ARSAŞ PETROL ÜRÜNLERİ PROJE İNŞAAT VE TİCARET ANONİM ŞİRKETİ","marka":"OPET","adres":"No:125 Ayaş Yolu 20.km","lat":39.971487,"lng":32.604582,"ilce":"Eti̇mesgut","il":"Ankara"},{"id":303,"adi":"ARAT PETROL ÜRÜNLERİ VE TAŞIMACILIK TİCARET LİMİTED ŞİRKETİ","marka":"OPET","adres":"PAMUKKALE BULVARI 9. KM. NO:40 KORUCUK","lat":37.839593,"lng":29.13505,"ilce":"Merkez","il":"Deni̇zli̇"},{"id":304,"adi":"ÖZTÜRKLER PETROL SANAYİ VE TİCARET ANONİM ŞİRKETİ","marka":"OPET","adres":"Esenyurt Incirtepe Mah. Avcılar Yolu Doğan Aralsı Cad.","lat":41.015348,"lng":28.731462,"ilce":"Büyükçekmece","il":"İstanbul"},{"id":305,"adi":"İSLAH PETROL ÜRÜNLERİ VE TURİZM İNŞAAT TİCARET LİMİTED ŞİRKETİ","marka":"OPET","adres":"Arnavutköy Beldesi Terkos Yolu Üzeri Çardaktepe Mevkii","lat":41.225514,"lng":28.707282,"ilce":"Gazi̇osmanpaşa","il":"İstanbul"},{"id":306,"adi":"TEKÇE KUYUMCULUK PETROL DAYANIKLI TÜKETİM MALLARI İTHALAT İHRACAT SANAYİ VE TİCARET LİMİTED ŞİRKETİ","marka":"OPET","adres":"Fevzi Çakmak Mahallesi Atatürk Bulvarı  Sanayi Sitesi Yanı","lat":37.019554,"lng":36.628071,"ilce":"İslahi̇ye","il":"Gazi̇antep"},{"id":307,"adi":"KASAPOĞLU TURİZM KUYUMCULUK NAKLİYAT GIDA İNŞAAT PETROL ÜRÜNLERİ VE TİCARET LİMİTED ŞİRKETİ","marka":"OPET","adres":"Aydınevler Mahallesi Sorgun Bulvarı","lat":36.785555,"lng":31.430508,"ilce":"Manavgat","il":"Antalya"},{"id":308,"adi":"ÖRS İNŞ. TAAH. VE TİC. KOLL. ŞTİ.- MUSTAFA ÖRS/MAHMUT ÖRS","marka":"TERMOPET AKARYAKIT ANONİM ŞİRKETİ","adres":"Sülekler Köyü Girişi","lat":37.121364,"lng":30.095678,"ilce":"Korkuteli̇","il":"Antalya"},{"id":309,"adi":"İ.S.ERTÜRK PETROL TARIM ÜRÜNLERİ GIDA NAKLİYAT TURİZM TEKEL ÜRÜNLERİ KANTAR İŞLETMESİ MOTORLU ARAÇLAR SANAYİ VE TİCARET İTHALAT İHRACAT LİMİTED ŞİRKETİ","marka":"OPET","adres":"Turan Mahallesi Gazi Mustafa Kemal Paşa Bulvarı  No:17","lat":41.290425,"lng":28.002506,"ilce":"Sarayköy","il":"Deni̇zli̇"},{"id":310,"adi":"BATAKKÖYLÜ GIDA TARIM PETROL ÜRÜNLERİ PAZARLAMA TAŞIMA HİZMETLERİ SANAYİ TİCARET LİMİTED ŞİRKETİ","marka":"OPET","adres":"Cumhuriyet Mahallesi Ada Caddesi  No:438a","lat":40.694718,"lng":30.627181,"ilce":"Akyazi","il":"Sakarya"},{"id":311,"adi":"KALAYOĞLU PETROL ÜRÜNLERİ KUYUMCULUK ZİRAAT NAKLİYAT TURİZM İNŞAAT SANAYİ VE TİCARET LİMİTED ŞİRKETİ","marka":"OPET","adres":"Asilbey Mahallesi Yaşar Çelik Caddesi  No:82 İç Kapı No:A","lat":40.771323,"lng":32.02994,"ilce":"Yeni̇çağa","il":"Bolu"},{"id":312,"adi":"ÇETİN-NAZLI PETROL TARIM KİMYEVİ GÜBRE MOTORLU ARAÇLAR TARIM ALETLERİ İNŞAAT MALZEMELERİ MARKETÇİLİK YEMCİLİK KANTAR İŞLETMECİLİĞİ YAPI MÜTEAHHİTLİĞİ VE NAKLİYATÇILIK SANAYİ VE TİCARET LİMİTED ŞİRKETİ","marka":"OPET","adres":"Cumhuriyet Mahallesi 42. Sokağı  No:53","lat":37.287259,"lng":35.58767,"ilce":"İmamoğlu","il":"Adana"},{"id":313,"adi":"MAVİ BEYAZ AKARYAKIT İNŞAAT PETROL PAZARLAMA SANAYİ VE TİCARET ANONİM ŞİRKETİ","marka":"OPET","adres":"Çamdibi Mahallesi Ulusal Egemenlik Caddesi  No:61","lat":36.862617,"lng":28.2726,"ilce":"Marmari̇s","il":"Muğla"},{"id":314,"adi":"MAVİ BEYAZ AKARYAKIT İNŞAAT PETROL PAZARLAMA SANAYİ VE TİCARET ANONİM ŞİRKETİ","marka":"OPET","adres":"Kemikler Mahallesi 2 Bulvarı  No:68 Güllük-güvercinlik Arası","lat":37.311638,"lng":27.780795,"ilce":"Mi̇las","il":"Muğla"},{"id":315,"adi":"ERHAN DEDEOĞLU PETROL ÜRÜNLERİ PAZARLAMA VE TİCARET LİMİTED ŞİRKETİ","marka":"OPET","adres":"Çobançeşme Mahallesi Dumlupınar Caddesi  No:56","lat":40.992941,"lng":28.828415,"ilce":"Bahçeli̇evler","il":"İstanbul"},{"id":316,"adi":"OSMAN YALÇIN","marka":"TERMOPET AKARYAKIT ANONİM ŞİRKETİ","adres":"Uzunoluk Mahallesi Sanayi Sitesi Yanı","lat":37.091261,"lng":30.222423,"ilce":"Korkuteli̇","il":"Antalya"},{"id":317,"adi":"ŞAHUTOĞLU PETROL OTOMOTİV İNŞAAT NAKLİYAT GIDA TEKSTİL SANAYİ VE TİCARET LİMİTED ŞİRKETİ","marka":"OPET","adres":"Demirtaş Mahallesi H. Okan Merzeci Bulvarı  No:453","lat":36.802679,"lng":34.601543,"ilce":"Toroslar","il":"Mersi̇n"},{"id":318,"adi":"LİMANKÖY PETROL ÜRÜNLERİ İNŞAAT SANAYİ TURİZM TİCARET İTHALAT İHRACAT LİMİTED ŞİRKETİ","marka":"OPET","adres":"Limanköy Mahallesi  Rize - Hopa Şosesi","lat":41.025511,"lng":40.517666,"ilce":"Çayeli̇","il":"Ri̇ze"},{"id":319,"adi":"MAVİ BEYAZ AKARYAKIT İNŞAAT PETROL PAZARLAMA SANAYİ VE TİCARET ANONİM ŞİRKETİ","marka":"OPET","adres":"Torbalı Mahallesi Emin Anter Bulvarı No:154","lat":37.069716,"lng":27.470148,"ilce":"Bodrum","il":"Muğla"},{"id":320,"adi":"ACAMAR AKARYAKIT İNŞAAT SANAYİ TİCARET ANONİM ŞİRKETİ","marka":"OPET","adres":"İsmetpaşa Mahallesi Atatürk Bulvarı  No:86","lat":40.65795,"lng":29.291852,"ilce":"Merkez","il":"Yalova"},{"id":321,"adi":"MELİH AKARYAKIT DAĞITIM VE TİCARET LİMİTED ŞİRKETİ","marka":"OPET","adres":"Aziziye Mahallesi Nezih Tütüncüoğlu Bulvarı  Yimpaş Yanı","lat":40.844017,"lng":31.140766,"ilce":"Merkez","il":"Düzce"},{"id":322,"adi":"MASUM GÖLGE","marka":"OPET","adres":"Eski Kadın Köyü Köyün Kendisi Küme Evler No:219/1","lat":41.7,"lng":26.560986,"ilce":"Merkez","il":"Edi̇rne"},{"id":323,"adi":"ÖZTÜRKLER PETROL SANAYİ VE TİCARET ANONİM ŞİRKETİ","marka":"OPET","adres":"E-5 Karayolu Üzeri 7. Km.","lat":37.028765,"lng":35.812431,"ilce":"Ceyhan","il":"Adana"},{"id":324,"adi":"ÖZTÜRKLER PETROL SANAYİ VE TİCARET ANONİM ŞİRKETİ","marka":"OPET","adres":"Mersin - Tarsus Yolu Ataş Kavşağı No:98","lat":36.812104,"lng":34.641481,"ilce":"Merkez","il":"Mersi̇n"},{"id":325,"adi":"POLAT PETROL ÜRÜNLERİ MOTORLU ARAÇ GIDA VE TEMİZLİK MADDELERİ TİCARET PAZARLAMA ANONİM ŞİRKETİ","marka":"OPET","adres":"Yeşiloba Mahallesi Turhan Cemal Beriker Bulvarı  No:524","lat":36.997447,"lng":35.24381,"ilce":"Seyhan","il":"Adana"},{"id":326,"adi":"ŞERAFETTİN ÇEBİ PETROL ÜRÜNLERİ İNŞAAT HAFRİYAT NAKLİYE TURİZM SANAYİ VE TİCARET LİMİTED ŞİRKETİ","marka":"OPET","adres":"Hürriyet Mahallesi, Gülpare Sokak, No:44","lat":40.981609,"lng":27.554081,"ilce":"Merkez","il":"Teki̇rdağ"},{"id":327,"adi":"KADOPET OTO SANAYİ AKARYAKIT ANONİM ŞİRKETİ","marka":"OPET","adres":"1. Caddesi 10. Sokağı  Kadosan Sanayi Sitesi 1.cadde 10.sokak No.2 Esenşehir","lat":40.994508,"lng":29.185446,"ilce":"Ümrani̇ye","il":"İstanbul"},{"id":328,"adi":"OKUR İNŞAAT TAAHHÜT TURİZM TAŞIMACILIK TİCARET LİMİTED ŞİRKETİ","marka":"OPET","adres":"Orta Mahallesi Atatürk Bulvarı  No:1 Orta Mahallesi Atatürk Bulvarı","lat":41.029756,"lng":36.634868,"ilce":"Ayvacik","il":"Samsun"},{"id":329,"adi":"ŞEKER AKARYAKIT NAKLİYAT GIDA MADDELERİ SANAYİ TİCARET LİMİTED ŞİRKETİ","marka":"OPET","adres":"Adana Karayolu 23.km","lat":38.691222,"lng":35.242766,"ilce":"İncesu","il":"Kayseri̇"},{"id":330,"adi":"CEMALOĞULLARI PETROL TİCARET SANAYİ LİMİTED ŞİRKETİ","marka":"OPET","adres":"Kızılırmak Mahallesi  Kesikköprü Ankara Yolu 1.kmKesikköprü Köyü","lat":39.397892,"lng":33.401127,"ilce":"Merkez","il":"Ankara"},{"id":331,"adi":"İSA ÇETİN","marka":"TERMOPET AKARYAKIT ANONİM ŞİRKETİ","adres":"Yeşilyurt Mah Mahallesi  Tokmakalan Yolu Küme Evler  No:1/1","lat":38.427613,"lng":27.416275,"ilce":"Kemalpaşa","il":"İzmi̇r"},{"id":332,"adi":"SALİH PETROL SANAYİ TİCARET LİMİTED ŞİRKETİ","marka":"TERMOPET AKARYAKIT ANONİM ŞİRKETİ","adres":"Yalı Mahallesi Sahil Yolu Cad. No:101","lat":41.0555,"lng":30.8509,"ilce":"Kocaali̇","il":"Sakarya"},{"id":333,"adi":"KALAYOĞLU PETROL ÜRÜNLERİ KUYUMCULUK ZİRAAT NAKLİYAT TURİZM İNŞAAT SANAYİ VE TİCARET LİMİTED ŞİRKETİ","marka":"OPET","adres":"Yeni Mahallesi Kırıklar Caddesi  No:97/C İç Kapı No:1","lat":41.221412,"lng":31.954467,"ilce":"Devrek","il":"Zonguldak"},{"id":334,"adi":"GÜNDOĞDU PETROL ZAHİRE SANAYİ VE TİCARET LİMİTED ŞİRKETİ","marka":"OPET","adres":"Cumhuriyet Mahallesi 2 Caddesi  Beyköy  No:17","lat":40.828087,"lng":31.137164,"ilce":"Merkez","il":"Düzce"},{"id":335,"adi":"MOL PETROL AKARYAKIT VE DİNLENME TESİLERİ. TİARET SANAYİ ANONİM ŞİRKETİ","marka":"OPET","adres":"Erler Mahallesi Dumlupınar Bulvarı  No:366","lat":39.898621,"lng":32.684313,"ilce":"Eti̇mesgut","il":"Ankara"},{"id":336,"adi":"MEHMET AKİF FAKIOĞLU - FAKIOĞLU PETROL","marka":"TERMOPET AKARYAKIT ANONİM ŞİRKETİ","adres":"DörtyolIğdebeli Köyü","lat":39.512189,"lng":33.520941,"ilce":"Çelebi̇","il":"Kirikkale"},{"id":337,"adi":"AKANLAR AKARYAKIT MAHRUKAT İNŞAAT TİCARET VE SANAYİ LİMİTED ŞİRKETİ","marka":"TERMOPET AKARYAKIT ANONİM ŞİRKETİ","adres":"Tepebaşı Mahallesi Ertuğrul gazi Caddesi","lat":39.813104,"lng":31.03351,"ilce":"Alpu","il":"Eski̇şehi̇r"},{"id":338,"adi":"ALSEVİN PETROL ÜRÜNLERİ DAYANIKLI TÜKETİM MALZEMELERİ TURİZM TAŞIMACILIK MAKİNA OTOMOTİV SANAYİ İTHALAT İHRACAT TİCARET LİMİTED ŞİRKETİ","marka":"OPET","adres":"Gürselpaşa Mahallesi 75370 Sokağı  No:2","lat":37.020785,"lng":35.274064,"ilce":"Seyhan","il":"Adana"},{"id":339,"adi":"STFC PETROL ÜRÜNLERİ İNŞAAT TURİZM TEKSTİL GIDA SANAYİ İÇ VE DIŞ TİCARET LİMİTED ŞİRKETİ","marka":"OPET","adres":"Güneykent Mahallesi","lat":37.015556,"lng":37.315904,"ilce":"Şahi̇nbey","il":"Gazi̇antep"},{"id":340,"adi":"İDİL-PET PETROL ÜRÜNLERİ TURİZM TARIM HAYVANCILIK NAKLİYAT İÇ VE DIŞ TİCARET LİMİTED ŞİRKETİ","marka":"OPET","adres":"Cizre Yolu Aşağı Mahallesi  Deştat","lat":37.3402,"lng":41.8934,"ilce":"İdi̇l","il":"Şirnak"},{"id":341,"adi":"GÜNEŞPET İNŞAAT PETROL ÜRÜNLERİ SANAYİ VE TİCARET LİMİTED ŞİRKETİ","marka":"OPET","adres":"Merve Mahallesi Atatürk Caddesi  No:308","lat":41.007471,"lng":29.244067,"ilce":"Sancaktepe","il":"İstanbul"},{"id":342,"adi":"AKİF YILMAZ AKARYAKIT VE DİNLENME TESİSLERİ TİCARET VE SANAYİ LİMİTED ŞİRKETİ","marka":"OPET","adres":"Köprübaşı Mahallesi Köşker Sokağı  No:2","lat":40.508635,"lng":30.290266,"ilce":"Geyve","il":"Sakarya"},{"id":343,"adi":"ÖZERLER OTOMOTİV VE PETROL ÜRÜNLERİ PAZARLAMA SANAYİ VE TİCARET ANONİM ŞİRKETİ","marka":"OPET","adres":"M. Akif Ersoy Caddesi  No:34/2A. Doğancılar Köyü","lat":41.100421,"lng":31.392842,"ilce":"Alapli","il":"Zonguldak"},{"id":344,"adi":"BULUTLAR PETROL İNŞAAT NAKLİYE SANAYİ VE TİCARET LİMİTED ŞİRKETİ","marka":"OPET","adres":"Mustafa Asım Köksal Mahallesi Aşık Seyrani Caddesi  No:167","lat":38.403461,"lng":35.490098,"ilce":"Develi̇","il":"Kayseri̇"},{"id":345,"adi":"PETROL 24 PETROL ÜRÜNLERİ PAZARLAMA SANAYİ VE TİCARET ANONİM ŞİRKETİ","marka":"OPET","adres":"İzzetpaşa Mahallesi Recep Tayyip Erdoğan Bulvarı  No:20","lat":39.768191,"lng":39.050131,"ilce":"Merkez","il":"Erzi̇ncan"},{"id":346,"adi":"BAĞDAT PETROL ÜRÜNLERİ İNŞAAT TAAHHÜT NAKLİYE SANAYİ VE TİCARET LİMİTED ŞİRKETİ","marka":"OPET","adres":"Mengücek Mahallesi Gaffar Okkan Bulvarı  No:636","lat":38.629757,"lng":35.704316,"ilce":"Talas","il":"Kayseri̇"},{"id":347,"adi":"FAKILI OTOBÜSCÜLÜK PAZARLAMA İNŞAAT LİMİTED ŞİRKETİ","marka":"OPET","adres":"Tekstilkent Mahallesi Demokrasi Bulvarı  No:169","lat":37.052155,"lng":37.411949,"ilce":"Şahi̇nbey","il":"Gazi̇antep"},{"id":348,"adi":"SINIRLI SORUMLU ADAPAZARI PANCAR EKİCİLERİ KOOPERATİFİ","marka":"OPET","adres":"Çatalköprü","lat":40.7853,"lng":30.569,"ilce":"Akyazi","il":"Sakarya"},{"id":349,"adi":"ÖREN-LİK PETROL ÜRÜNLERİ TAŞIMACILIK TURİZM METAL GIDA İNŞAAT TİCARET VE SANAYİ LİMİTED ŞİRKETİ","marka":"OPET","adres":"Seyfetler Köyü Değirmen Çayı Mevkii Değirmen Çayı Küme Evleri No:22- 1 Beldesi / Köyü","lat":41.368141,"lng":31.652783,"ilce":"Kozlu","il":"Zonguldak"},{"id":350,"adi":"ER-ÇA TURİZM VE TİCARET LİMİTED ŞİRKETİ","marka":"OPET","adres":"Aziziye Mahallesi D-100 Karayolu Caddesi  No:643","lat":40.848256,"lng":31.129471,"ilce":"Merkez","il":"Düzce"},{"id":351,"adi":"DORPET AKARYAKIT İNŞAAT GIDA TURİZM VE TİCARET LİMİTED ŞİRKETİ","marka":"TERMOPET AKARYAKIT ANONİM ŞİRKETİ","adres":"No:141 İvedik Mahallesi Anadolu Bulvarı","lat":40.000906,"lng":32.772958,"ilce":"Yeni̇mahalle","il":"Ankara"},{"id":352,"adi":"STFC PETROL ÜRÜNLERİ İNŞAAT TURİZM TEKSTİL GIDA SANAYİ İÇ VE DIŞ TİCARET LİMİTED ŞİRKETİ","marka":"OPET","adres":"Küçükkızılhisar Mahallesi Derindere Caddesi  No:27","lat":37.015556,"lng":37.315904,"ilce":"Şahi̇nbey","il":"Gazi̇antep"},{"id":353,"adi":"ONPET ONUR PETROL ÜRÜNLERİ SANAYİ TİCARET LİMİTED ŞİRKETİ","marka":"OPET","adres":"Çatalarmut Mahallesi Ankara Bulvarı  No:164","lat":41.290909,"lng":36.275122,"ilce":"İlkadim","il":"Samsun"},{"id":354,"adi":"PENDİK PETROL ÜRÜNLERİ İNŞAAT TURİZM GIDA TİCARET LİMİTED ŞİRKETİ","marka":"OPET","adres":"Doğu Mahallesi  No:43 Aydınlı Yolu Mostar Köprüsü Karşısı","lat":40.88147,"lng":29.240674,"ilce":"Pendi̇k","il":"İstanbul"},{"id":355,"adi":"GÜVEN-SAL İNŞAAT TURİZM GIDA İTRİYAT VE TAAHHÜT İŞLERİ SANAYİ VE TİCARET LİMİTED ŞİRKETİ","marka":"OPET","adres":"Beğendik Beldesi Beldesi / Köyü Yeni Mahalle Mahallesi Anafartalar Caddesi  No:177","lat":40.84428,"lng":26.629352,"ilce":"Keşan","il":"Edi̇rne"},{"id":356,"adi":"KURANOĞLU PET. TUR. SANAYİ ve TİCARET LİMİTED ŞİRKETİ","marka":"OPET","adres":"Karamehmet Mahallesi Recai Güreli Caddesi  No:52","lat":37.219658,"lng":28.351361,"ilce":"Merkez","il":"Muğla"},{"id":357,"adi":"ÖZTÜRKLER TURİZM VE PETROL ÜRÜNLERİ PAZARLAMA NAKLİYE VE TİCARET LİMİTED ŞİRKETİ","marka":"OPET","adres":"İstiktal- Kurtpınar Osb Mahallesi Atatürk Caddesi  No:15","lat":41.183891,"lng":27.508139,"ilce":"Muratli","il":"Teki̇rdağ"},{"id":358,"adi":"SEYHAN AKARYAKIT TAŞIMACILIK İNŞAAT TURİZM SANAYİ VE TİCARET LİMİTED ŞİRKETİ","marka":"OPET","adres":"Huzurevleri Mahallesi Turgut Özal Bulvarı  No:209","lat":37.048398,"lng":35.278661,"ilce":"Çukurova","il":"Adana"},{"id":359,"adi":"YÜCEL PETROL SANAYİ VE TİCARET LİMİTED ŞİRKETİ","marka":"OPET","adres":"Gaziler Mahallesi Yavuzeli Yolu Caddesi  No:70","lat":37.152879,"lng":37.413969,"ilce":"Şehi̇tkami̇l","il":"Gazi̇antep"},{"id":360,"adi":"AKAR PETROL ÜRÜNLERİ SANAYİ VE TİCARET LİMİTED ŞİRKETİ","marka":"OPET","adres":"Sultan Murat Mahallesi Sultan Murat Caddesi  No:110","lat":41.00255,"lng":28.78744,"ilce":"Küçükçekmece","il":"İstanbul"},{"id":361,"adi":"ÖZTÜRKLER PETROL SANAYİ VE TİCARET ANONİM ŞİRKETİ","marka":"OPET","adres":"Sayköyü Ziyarettepe Mevkii, Otoyol Içi(kuzey)","lat":36.940863,"lng":34.787558,"ilce":"Tarsus","il":"Mersi̇n"},{"id":362,"adi":"ARAMAN PETROL TARIM ÜRÜNLERİ GIDA İNŞAAT NAKLİYE SANAYİ VE TİCARET LİMİTED ŞİRKETİ","marka":"TERMOPET AKARYAKIT ANONİM ŞİRKETİ","adres":"Kaymaz Araman Omurca Mahallesi","lat":40.923846,"lng":30.265729,"ilce":"Kandira","il":"Kocaeli̇"},{"id":363,"adi":"S.S.ALPULLU PANCAR EKİCİLERİ KOOPERATİFİ","marka":"OPET","adres":"Domurcalı Köyü  Süloğlu","lat":41.8164,"lng":26.8165,"ilce":"Lalapaşa","il":"Edi̇rne"},{"id":364,"adi":"İTES İLERİ TEKNOLOJİ VE ENERJİ SİSTEMLERİ PETROL ÜRÜNLERİ TİCARET LİMİTED ŞİRKETİ","marka":"TERMOPET AKARYAKIT ANONİM ŞİRKETİ","adres":"İnönü Mahallesi Fatih Sultan Mehmet Bulvarı  No:344","lat":39.94541,"lng":32.73032,"ilce":"Yeni̇mahalle","il":"Ankara"},{"id":365,"adi":"EBED İTHALAT İHRACAT VE PETROL ÜRÜNLERİ TİCARET LİMİTED ŞİRKETİ","marka":"OPET","adres":"Araban Yolu 4. Km, Beylerbeyi Mevkii","lat":37.106515,"lng":37.405844,"ilce":"Şehi̇tkami̇l","il":"Gazi̇antep"},{"id":366,"adi":"HALİL EKİNCİOĞULLARI PETROL ÜRÜNLERİ SANAYİ VE TİCARET LİMİTED ŞİRKETİ","marka":"OPET","adres":"Karahöyük Mah. Yavuzeli Yolu Cad. No:43","lat":37.172098,"lng":37.394442,"ilce":"Şehi̇tkami̇l","il":"Gazi̇antep"},{"id":367,"adi":"GÖÇMENTÜRK DAYANIKLI TÜKETİM MALLARI TİCARET VE TURİZM LİMİTED ŞİRKETİ","marka":"OPET","adres":"Merkez Mahallesi Sahil Caddesi  No:74/1Kargıcak Köyü","lat":36.553476,"lng":31.977155,"ilce":"Alanya","il":"Antalya"},{"id":368,"adi":"MUSTAFA ŞEREF","marka":"TERMOPET AKARYAKIT ANONİM ŞİRKETİ","adres":"9 Mayıs Mah. Istanbul Cad. No:22","lat":40.026226,"lng":30.577051,"ilce":"Mi̇halgazi̇","il":"Eski̇şehi̇r"},{"id":369,"adi":"UZUN OTOMOTİV AKARYAKIT GIDA İNŞAAT SANAYİ VE TİCARET LİMİTED ŞİRKETİ","marka":"OPET","adres":"Merkez Mahallesi Erdal İnönü Caddesi No:20/1  Belevi","lat":37.76637,"lng":29.093198,"ilce":"Çal","il":"Deni̇zli̇"},{"id":370,"adi":"ÖZ DEMİRBİLEK PETROL ÜRÜNLERİ İTHALAT İHRACAT VE DAHİLİ TİCARET LİMİTED ŞİRKETİ","marka":"OPET","adres":"Anayazı Mahallesi Atatürk Caddesi  No:18","lat":36.315857,"lng":36.201164,"ilce":"Antakya","il":"Hatay"},{"id":371,"adi":"FİKRET PETROL ÜRÜNLERİ PAZARLAMA SANAYİ VE TİCARET ANONİM ŞİRKETİ","marka":"OPET","adres":"Cevizlidere Mahallesi Mevlana Bulvarı  No:225","lat":39.928567,"lng":32.868324,"ilce":"Çankaya","il":"Ankara"},{"id":372,"adi":"AYANGİL PETROL ÜRÜNLERİ TAŞIMACILIK TURİZM SANAYİ VE TİCARET LİMİTED ŞİRKETİ","marka":"OPET","adres":"Kurtbey Köyü","lat":41.143798,"lng":26.579851,"ilce":"Uzunköprü","il":"Edi̇rne"},{"id":373,"adi":"S.S.G İNŞAAT TAAHHÜT PETROL ÜRÜNLERİ SANAYİ VE TİCARET LİMİTED ŞİRKETİ","marka":"OPET","adres":"Kurtuluş Mahallesi Şehit Cüneyt Yıldız Caddesi  No:148-156","lat":40.210082,"lng":29.186223,"ilce":"Gürsu","il":"Bursa"},{"id":374,"adi":"YÜCELER AKARYAKIT TİCARET SANAYİ LİMİTED ŞİRKETİ","marka":"OPET","adres":"Makasbaşı Mevkii Balıköy","lat":39.514907,"lng":29.105525,"ilce":"Tavşanli","il":"Kütahya"},{"id":375,"adi":"FİLO ENERJİ İLETİŞİM PETROL İNŞAAT TURİZM TAŞIMACILIK GIDA OTOMOTİV VE TİCARET LİMİTED ŞİRKETİ","marka":"OPET","adres":"Sancaktepe Mahallesi Yozgat Bulvarı  No:31","lat":40.001601,"lng":32.821671,"ilce":"Keçi̇ören","il":"Ankara"},{"id":376,"adi":"ÖZTÜRKLER TURİZM VE PETROL ÜRÜNLERİ PAZARLAMA NAKLİYE VE TİCARET LİMİTED ŞİRKETİ","marka":"OPET","adres":"Geçkinler Köyü","lat":41.767485,"lng":26.911693,"ilce":"Süloğlu","il":"Edi̇rne"},{"id":377,"adi":"AYÇEL DEMİR ÇELİK NAKLİYAT TİCARET LİMİTED ŞİRKETİ","marka":"OPET","adres":"ÖZERLİ MAHALLESİ MUSTAFA KEMAL DUDUOĞLU BULVARI (ADA:704 PARSEL:1)","lat":36.823474,"lng":36.22619,"ilce":"Dörtyol","il":"Hatay"},{"id":378,"adi":"NANOPET PETROL ÜRÜNLERİ TURİZM GIDA EĞİTİM NAKLİYE SANAYİ VE TİCARET LİMİTED ŞİRKETİ","marka":"OPET","adres":"Sultaniçe Beldesi / Köyü Sultaniçe Kümeevler Mahallesi  No:447 B/0","lat":40.624908,"lng":26.154326,"ilce":"Enez","il":"Edi̇rne"},{"id":379,"adi":"RAN PET PETROL GIDA TAŞIMACILIK MADENCİLİK İNŞAAT SANAYİ VE TİCARET ANONİM ŞİRKETİ","marka":"OPET","adres":"Atatürk Mahallesi Jandarma Karakolu Bitişiği Mersin Caddesi No:1","lat":36.648309,"lng":34.370931,"ilce":"Erdemli̇","il":"Mersi̇n"},{"id":380,"adi":"İRFAN KOZCAĞIZ","marka":"TERMOPET AKARYAKIT ANONİM ŞİRKETİ","adres":"Hacı Murat Mahallesi Ankara Caddesi  No:183","lat":40.397487,"lng":30.495682,"ilce":"Tarakli","il":"Sakarya"},{"id":381,"adi":"KAZIM YAY AKARYAKIT VE TURİSTİK TESİSLERİ SANAYİ TİCARET LİMİTED ŞİRKETİ","marka":"OPET","adres":"Malkara Caddesi","lat":41.206116,"lng":27.102895,"ilce":"Merkez","il":"Teki̇rdağ"},{"id":382,"adi":"DAĞAŞAN PETROL NAKLİYAT GIDA İNŞAAT TURİZM SANAYİ VE TİCARET LİMİTED ŞİRKETİ","marka":"TERMOPET AKARYAKIT ANONİM ŞİRKETİ","adres":"Gidirli Mahallesi Gidirli Sokağı  No:10A","lat":41.141039,"lng":35.687258,"ilce":"Havza","il":"Samsun"},{"id":383,"adi":"NUR OL PETROL AKARYAKIT MOTORLU ARAÇLAR YEDEK PARÇA İTHALAT İHRACAT ULUSLARARASI NAKLİYAT GIDA TARIMSAL ÜRÜNLER İLAÇLAMA TEKSTİL AYAKKABI ÇANTA İNŞAAT YAPI MALZEMELERİ SANAYİ VE TİCARET LİMİTED ŞİRKETİ","marka":"OPET","adres":"Camuzcu Mahallesi 7001 Sokağı  No:145/A","lat":36.917675,"lng":35.27301,"ilce":"Seyhan","il":"Adana"},{"id":384,"adi":"DAĞ-SA PETROL ÜRÜNLERİ NAKLİYE TARIM TEKSTİL TUR. İTH. İHR. SANAYİ ve TİCARET LİMİTED ŞİRKETİ","marka":"OPET","adres":"Toprakkale Iskenderun Otoyolu 190+200 Km. (kuzey)","lat":36.532362,"lng":36.040079,"ilce":"Erzi̇n","il":"Hatay"},{"id":385,"adi":"ARAMAN PETROL TARIM ÜRÜNLERİ GIDA İNŞAAT NAKLİYE SANAYİ VE TİCARET LİMİTED ŞİRKETİ","marka":"TERMOPET AKARYAKIT ANONİM ŞİRKETİ","adres":"Karadere Mahallesi Adapazarı Kaynarca Caddesi  No:37/A","lat":40.816239,"lng":30.376254,"ilce":"Adapazari","il":"Sakarya"},{"id":386,"adi":"ERDOĞAN KAYA","marka":"OPET","adres":"Gölcük Mahallesi Recep Tayyip Erdoğan Caddesi  No:4","lat":39.746797,"lng":39.491124,"ilce":"Merkez","il":"Erzi̇ncan"},{"id":387,"adi":"AYBABA PETROL ÜRÜNLERİ TURİZM NAKLİYE GIDA TÜTÜN ÜRÜNLERİ İTHALAT İHRACAT SANAYİ VE TİCARET LİMİTED ŞİRKETİ","marka":"OPET","adres":"Eti Mahallesi Celal Bayar Bulvarı  No:45","lat":39.930621,"lng":32.8482,"ilce":"Çankaya","il":"Ankara"},{"id":388,"adi":"YERGÜN İNŞAAT TURİZM OTOMOTİV GIDA VE AKARYAKIT TİCARET LİMİTED ŞİRKETİ","marka":"OPET","adres":"Cumhuriyet Mahallesi 2252 Sokağı  No:10","lat":40.804753,"lng":29.36694,"ilce":"Gebze","il":"Kocaeli̇"},{"id":389,"adi":"DÜDENBAŞI PETROL TAŞIMACILIK İNŞAAT EMLAK TARIM GIDA TURİZM SANAYİ VE TİCARET LİMİTED ŞİRKETİ","marka":"TERMOPET AKARYAKIT ANONİM ŞİRKETİ","adres":"Çandır Mahallesi Kocaboyun Sokağı  No:1/ B","lat":36.917399,"lng":31.104447,"ilce":"Seri̇k","il":"Antalya"},{"id":390,"adi":"İNCİ PETROL ÜRÜNLERİ PAZARLAMA TİCARET VE SANAYİ LİMİTED ŞİRKETİ (KARASU ŞUBESİ)","marka":"OPET","adres":"Kargalıhanbaba Mevkii D-100 Karayolu Kenarı","lat":40.781354,"lng":30.679033,"ilce":"Hendek","il":"Sakarya"},{"id":391,"adi":"FEMU PETROL VE PETROL ÜRÜNLERİ GIDA NAKLİYE OTOMOTİV SANAYİ VE TİCARET LİMİTED ŞİRKETİ","marka":"OPET","adres":"Cumhuriyet Mahallesi Kıbrıs Caddesi  No:200","lat":38.35616,"lng":35.085944,"ilce":"Yeşi̇lhi̇sar","il":"Kayseri̇"},{"id":392,"adi":"EGECEM PETROL GIDA TARIM HAYVANCILIK OTOMOTİV İNŞAAT TURİZM SANAYİ VE TİCARET LİMİTED ŞİRKETİ","marka":"OPET","adres":"Torbalı Mahallesi Aydın Caddesi  No:26","lat":38.217377,"lng":27.323252,"ilce":"Torbali","il":"İzmi̇r"},{"id":393,"adi":"ERİK PETROL SANAYİ VE TİCARET LİMİTED ŞİRKETİ","marka":"TERMOPET AKARYAKIT ANONİM ŞİRKETİ","adres":"Yalı Mahallesi Istanbul Caddesi No:45","lat":41.110315,"lng":30.667815,"ilce":"Karasu","il":"Sakarya"},{"id":394,"adi":"SERİN PETROKİMYA SANAYİ VE TİCARET LİMİTED ŞİRKETİ","marka":"OPET","adres":"Gürsel Mahallesi İmrahor Caddesi  No:17","lat":41.075122,"lng":28.9696,"ilce":"Kağithane","il":"İstanbul"},{"id":395,"adi":"FAHSEL OTOMOTİV AKARYAKIT ÜRÜNLERİ PAZARLAMA SANAYİ VE TİCARET ANONİM ŞİRKETİ","marka":"OPET","adres":"Merkez Mahallesi  Kocaahlat","lat":40.89823,"lng":29.359878,"ilce":"Tuzla","il":"İstanbul"},{"id":396,"adi":"FİNMAR PETROL TURİZM TAŞIMACILIK SANAYİ VE TİCARET LİMİTED ŞİRKETİ","marka":"OPET","adres":"Kale Mahallesi, Liman Içi","lat":36.13523,"lng":29.752738,"ilce":"Fi̇ni̇ke","il":"Antalya"},{"id":397,"adi":"Kayıkçıoğlu Petrol Ürünleri Nakliyat Ticaret Limited Şirketi","marka":"OPET","adres":"Sanayi Mahallesi Devlet Karayolu Caddesi  No:66","lat":40.997361,"lng":39.748437,"ilce":"Ortahi̇sar","il":"Trabzon"},{"id":398,"adi":"AK OVA İNŞAAT SANAYİTİCARET LİMİTED ŞİRKETİ","marka":"OPET","adres":"Hacı Osman Mahallesi","lat":40.774023,"lng":29.745485,"ilce":"Körfez","il":"Kocaeli̇"},{"id":399,"adi":"GÖNLÜAÇIK TARIM PETROL ÜRÜNLERİ OTOMOTİV NAKLİYE İNŞAAT SANAYİ VE TİCARET LİMİTED ŞİRKETİ","marka":"TERMOPET AKARYAKIT ANONİM ŞİRKETİ","adres":"Fatih Mahallesi Zübeyde Hanım Caddesi  No:20","lat":39.385472,"lng":31.81114,"ilce":"Günyüzü","il":"Eski̇şehi̇r"},{"id":400,"adi":"GÖNLÜAÇIK TARIM PETROL ÜRÜNLERİ OTOMOTİV NAKLİYE İNŞAAT SANAYİ VE TİCARET LİMİTED ŞİRKETİ","marka":"TERMOPET AKARYAKIT ANONİM ŞİRKETİ","adres":"Fatih Mahallesi Atatürk CaddesiKayakent Beldesi Köyü","lat":39.385472,"lng":31.81114,"ilce":"Günyüzü","il":"Eski̇şehi̇r"},{"id":401,"adi":"ÖZDEMİR İNŞAAT TARIM ÜRÜNLERİ PETROL PAZARLAMA SANAYİ VE TİCARET LİMİTED ŞİRKETİ","marka":"OPET","adres":"Harman Mahallesi Aşık Seyrani Caddesi No:178","lat":38.408003,"lng":35.490552,"ilce":"Develi̇","il":"Kayseri̇"},{"id":402,"adi":"ÖZTRAKYA AKARYAKIT SANAYİ VE TİCARET LİMİTED ŞİRKETİ","marka":"OPET","adres":"İslamsaray Mahallesi 930 Sokağı  No:5","lat":39.121449,"lng":27.179913,"ilce":"Bergama","il":"İzmi̇r"},{"id":403,"adi":"KIBRISCIK KARAGÖL AKARYAKIT İNŞAAT ZAHİRECİLİK NAKLİYE TURİZM TİCARET SANAYİ LİMİTED ŞİRKETİ","marka":"TERMOPET AKARYAKIT ANONİM ŞİRKETİ","adres":"Karadoğan Mahallesi Bolu Caddesi No:15","lat":40.413508,"lng":31.844337,"ilce":"Kibriscik","il":"Bolu"},{"id":404,"adi":"NEMKA AKARYAKIT MAKİNA VE DEMİR ÇELİK İNŞAAT SANAYİ VE TİCARET LİMİTED ŞİRKETİ","marka":"OPET","adres":"Hisar Mahallesi Kandak Caddesi No:1 Selimiye (pafta:3 Ada:- Parsel:1024)","lat":37.403258,"lng":27.657052,"ilce":"Mi̇las","il":"Muğla"},{"id":405,"adi":"DENİZ ŞAHİNER-DENİZ NAKLİYAT VE AKARYAKIT","marka":"TERMOPET AKARYAKIT ANONİM ŞİRKETİ","adres":"Başağıl Köyü","lat":41.265033,"lng":26.797413,"ilce":"Uzunköprü","il":"Edi̇rne"},{"id":406,"adi":"FİKRET PETROL ÜRÜNLERİ PAZARLAMA SANAYİ VE TİCARET ANONİM ŞİRKETİ","marka":"OPET","adres":"Akdeniz Mahallesi Alparslan Türkeş Bulvarı Mersin-antalya Yolu Üzeri","lat":36.055009,"lng":32.819335,"ilce":"Anamur","il":"Mersi̇n"},{"id":407,"adi":"ÖZYİĞİT PETROL TARIM ÜRÜNLERİ GIDA SANAYİ VE TİCARET LİMİTED ŞİRKETİ","marka":"TERMOPET AKARYAKIT ANONİM ŞİRKETİ","adres":"Kütahya Yolu Üzeri Hacıbekir Kasabası Köyü","lat":39.726938,"lng":30.360774,"ilce":"Çavdarhi̇sar","il":"Kütahya"},{"id":408,"adi":"NURÇELİK NAKLİYAT PETROL İNŞAAT İLETİM TEMİZLİK GIDA TAAHHÜT SANAYİ VE TİCARET LİMİTED ŞİRKETİ","marka":"OPET","adres":"Kösetarla Köyü Danalı Sapağı Sk.  No:1","lat":37.893298,"lng":41.201058,"ilce":"Merkez","il":"Batman"},{"id":409,"adi":"KAYALAR PLAZA OTOMOTİV YAPI MALZEMELERİ SANAYİ VE TİCARET LİMİTED ŞİRKETİ","marka":"OPET","adres":"D-650 Karayolu Üzeri 7. Km Adliye Köyü/nehirkent","lat":40.735693,"lng":30.383513,"ilce":"Merkez","il":"Sakarya"},{"id":410,"adi":"ŞİMŞEKLİ PETROL DAĞITIM TEKSTİL ÜRÜNLERİ VE DIŞ TİCARET PAZARLAMA ANONİM ŞİRKETİ","marka":"OPET","adres":"Sarıcalar Mahallesi Atatürk Caddesi  No:231 – 233","lat":36.514244,"lng":34.032358,"ilce":"Si̇li̇fke","il":"Mersi̇n"},{"id":411,"adi":"SEÇKAR PETROL TURİZM İNŞAAT VE MALZEMELERİ GIDA SANAYİ TİCARET LİMİTED ŞİRKETİ","marka":"OPET","adres":"Yüzbaşı İbrahim Hakkı Caddesi No:20 (ada: 14157 Pafta: Parsel: 1 )","lat":38.464988,"lng":27.189549,"ilce":"Bayrakli","il":"İzmi̇r"},{"id":412,"adi":"RENK PETROL TURİZM ANONİM ŞİRKETİ","marka":"OPET","adres":"Cumhuriyet Mahallesi D-100 Karayolu Caddesi No.372/1","lat":41.018373,"lng":28.632662,"ilce":"Büyükçekmece","il":"İstanbul"},{"id":413,"adi":"AYBİL PETROL ÜRÜNLERİ NAKLİYE TURİZM İNŞAAT VE GIDA SANAYİ TİCARET LİMİTED ŞİRKETİ","marka":"OPET","adres":"Ahi Evran Mahallesi Sivas Bulvarı  No:414","lat":38.774796,"lng":35.573574,"ilce":"Kocasi̇nan","il":"Kayseri̇"},{"id":414,"adi":"M.SEVEN PETROL İNŞAAT TURİZM EMLAK GIDA SANAYİ TİCARET LİMİTED ŞİRKETİ","marka":"OPET","adres":"Ankara-beypazarı Karayolu 72.km","lat":39.955829,"lng":32.699262,"ilce":"Güdül","il":"Ankara"},{"id":415,"adi":"MERCANLAR PETROL ÜRÜNLERİ OTOMOTİV SANAYİ VE TİCARET LİMİTED ŞİRKETİ","marka":"OPET","adres":"Akçay Caddesi  No:278/A","lat":38.319646,"lng":27.137781,"ilce":"Gazi̇emi̇r","il":"İzmi̇r"},{"id":416,"adi":"RENK PETROL TURİZM ANONİM ŞİRKETİ","marka":"OPET","adres":"Yakuplu Mahallesi Hürriyet Bulvarı  No:161A/1","lat":40.989719,"lng":28.668291,"ilce":"Beyli̇kdüzü","il":"İstanbul"},{"id":417,"adi":"MERCANLAR PETROL ÜRÜNLERİ OTOMOTİV SANAYİ VE TİCARET LİMİTED ŞİRKETİ","marka":"OPET","adres":"İskele Mahallesi  Lağımlar Mevkii Çeşme Karayolu Üzeri","lat":38.354448,"lng":26.764377,"ilce":"Urla","il":"İzmi̇r"},{"id":418,"adi":"GÜNDOĞMUŞ PETROL ÜRÜNLERİ İNŞAAT TURİZM GIDA NAKLİYE SANAYİ VE TİCARET LİMİTED ŞİRKETİ","marka":"OPET","adres":"Toybelen Mahallesi Anadolu Bulvarı  No:150","lat":41.290342,"lng":36.279172,"ilce":"İlkadim","il":"Samsun"},{"id":419,"adi":"BARANPET PETROL ÜRÜNLERİ TAŞIMACILIK İNŞAAT GIDA SANAYİ VE TİCARET LİMİTED ŞİRKETİ","marka":"OPET","adres":"Kurtuluş Mahallesi İzmir Yolu Caddesi  No:541","lat":40.216467,"lng":28.843935,"ilce":"Ni̇lüfer","il":"Bursa"},{"id":420,"adi":"YARDIMCI PAZARLAMA SANAYİ VE TİCARET ANONİM ŞİRKETİ","marka":"OPET","adres":"Kemalpaşa Mahallesi Ankara Karayolu No:24 Saraybahçe","lat":40.762086,"lng":29.919992,"ilce":"İzmi̇t","il":"Kocaeli̇"},{"id":421,"adi":"İSHAKOĞLU GIDA NAKLİYE VE İNŞAAT SANAYİ VE DIŞ TİCARET LİMİTED ŞİRKETİ","marka":"OPET","adres":"Ayazlı Mahallesi Ereğli Caddesi  No:163/1","lat":41.084439,"lng":31.174326,"ilce":"Akçakoca","il":"Düzce"},{"id":422,"adi":"BEYHAN AVCI","marka":"TERMOPET AKARYAKIT ANONİM ŞİRKETİ","adres":"Bahçe Beldesi Bahçe Caddesi No:43/a (251 Ada, 1 Parsel)","lat":36.664978,"lng":35.258796,"ilce":"Karataş","il":"Adana"},{"id":423,"adi":"ADAR ENERJİ ÜRETİM AKARYAKIT SANAYİ VE TİCARET ANONİM ŞİRKETİ","marka":"OPET","adres":"Çubuklu Mah. Orhan Veli Kanık Cad. 119. Sok. No: 59","lat":41.094876,"lng":29.090854,"ilce":"Beykoz","il":"İstanbul"},{"id":424,"adi":"DAĞAÇIKAN PETROL ÜRÜNLERİ TAŞIMACILIK GIDA İNŞAAT SANAYİ VE TİCARET LİMİTED ŞİRKETİ","marka":"OPET","adres":"Mücahitler Mahallesi Ali Fuat Cebesoy Bulvarı  No:16","lat":37.072582,"lng":37.375316,"ilce":"Şehi̇tkami̇l","il":"Gazi̇antep"},{"id":425,"adi":"S.S. AĞILLAR KÖYÜ TARIMSAL KALKINMA KOOP.","marka":"TERMOPET AKARYAKIT ANONİM ŞİRKETİ","adres":"AĞILLAR KÖYÜ","lat":41.557877,"lng":35.917805,"ilce":"Bafra","il":"Samsun"},{"id":426,"adi":"ERDOĞANLAR TURİZM ANONİM ŞİRKETİ","marka":"OPET","adres":"T. Cemal Beriker Bulvarı  No:451","lat":36.995726,"lng":35.261509,"ilce":"Seyhan","il":"Adana"},{"id":427,"adi":"EDELER PETROL VE TARIM ÜRÜNLERİ GIDA NAKLİYAT İNŞAAT TAAHHÜT PAZARLAMA SANAYİ VE TİCARET LİMİTED ŞİRKETİ","marka":"OPET","adres":"Yeniorman Mahallesi 15006 Sokağı  No:54","lat":40.774205,"lng":30.597518,"ilce":"Akyazi","il":"Sakarya"},{"id":428,"adi":"OLPET TURİZM NAKLİYAT AKARYAKIT ÜRÜNLERİ İNŞAAT SANAYİ VE TİCARET LİMİTED ŞİRKETİ","marka":"OPET","adres":"Deliktaş Mahallesi Mahallesi 1925 Sokağı  No:2 Acıpayam Asfaltı","lat":37.772736,"lng":29.099898,"ilce":"Merkez","il":"Deni̇zli̇"},{"id":429,"adi":"ERTEKİN PETROL ÜRÜNLERİ TAŞIMACILIK İNŞAAT TURİZM VE TİCARET LİMİTED ŞİRKETİ","marka":"OPET","adres":"Derecik Mahallesi Anadolu Bulvarı  No:52/A","lat":41.306351,"lng":36.29769,"ilce":"İlkadim","il":"Samsun"},{"id":430,"adi":"MİNÖR GIDA RESTAURANT TEKSTİL PETROL ÜRÜNLERİ SANAYİ VE TİCARET LİMİTED ŞİRKETİ","marka":"OPET","adres":"Izmir Yolu 27. Km. Caddesi  Marmarabirlik Yanı","lat":40.212653,"lng":28.932658,"ilce":"Ni̇lüfer","il":"Bursa"},{"id":431,"adi":"KATRANCIOĞLU PETROL MARKET DİNLENME TESİSLERİ VE NAKLİYAT SANAYİ VE TİCARET LİMİTED ŞİRKETİ","marka":"OPET","adres":"Akbez Fatih Mahallesi Islahiye Caddesi  No:136","lat":36.85076,"lng":36.555247,"ilce":"Hassa","il":"Hatay"},{"id":432,"adi":"BULUTLAR PETROL İNŞAAT NAKLİYE SANAYİ VE TİCARET LİMİTED ŞİRKETİ","marka":"OPET","adres":"Alpaslan Mahallesi Hadibey Caddesi  No:266","lat":38.403461,"lng":35.490098,"ilce":"Develi̇","il":"Kayseri̇"},{"id":433,"adi":"ŞALPAZARI YILMAZLAR PETROL ÜRÜNLERİ NAKLİYAT SERVİS HİZMETLERİ VE TİCARET LİMİTED ŞİRKETİ","marka":"OPET","adres":"KİREÇ MAHALLESİ, ATATÜRK CADDESİ","lat":40.941944,"lng":39.193078,"ilce":"Şalpazari","il":"Trabzon"},{"id":434,"adi":"EKOL PETROL İNŞAAT TURİZM NAKLİYAT VE TİCARET LİMİTED ŞİRKETİ","marka":"OPET","adres":"Deniz Mahallesi Fırtına Dere Küme Evleri No:7","lat":41.189439,"lng":40.965614,"ilce":"Ardeşen","il":"Ri̇ze"},{"id":435,"adi":"RENK PETROL TURİZM ANONİM ŞİRKETİ","marka":"OPET","adres":"Halkalı Merkez Mahallesi Fatih Caddesi  No:101","lat":41.029175,"lng":28.806515,"ilce":"Küçükçekmece","il":"İstanbul"},{"id":436,"adi":"SEFİLLER PETROL TURİZM TAŞIMACILIK İNŞAAT GIDA TARIM ÜRÜNLERİ TEKSTİL KİMYA SANAYİ VE TİCARET LİMİTED ŞİRKETİ","marka":"OPET","adres":"Kılavuz Mah. Kılavuz Köyü Küme Evler Sefiller Petrol Blok No:109 İç Kapı No:1","lat":37.801607,"lng":34.765731,"ilce":"Oğuzeli̇","il":"Gazi̇antep"},{"id":437,"adi":"DAĞ-SA PETROL ÜRÜNLERİ NAKLİYE TARIM TEKSTİL TUR. İTH. İHR. SANAYİ ve TİCARET LİMİTED ŞİRKETİ","marka":"OPET","adres":"Toprakkale Iskenderun Otoyolu 190+200 Km. (güney)","lat":36.532362,"lng":36.040079,"ilce":"Erzi̇n","il":"Hatay"},{"id":438,"adi":"DAĞ-SA PETROL ÜRÜNLERİ NAKLİYE TARIM TEKSTİL TUR. İTH. İHR. SANAYİ ve TİCARET LİMİTED ŞİRKETİ","marka":"OPET","adres":"Hüseyin Okan Merzeci Bulvarı  Müftü Deresi Bitişiği  No:442","lat":36.836069,"lng":34.588014,"ilce":"Merkez","il":"Mersi̇n"},{"id":439,"adi":"İPAŞ PETROL ÜRÜNLERİ İNŞAAT MÜHENDİSLİK TURİZM İÇ VE DIŞ TİCARET SANAYİ VE ANONİM ŞİRKETİ","marka":"OPET","adres":"Hasanoğlan Bahçelievler Mahallesi 19 Mayıs Bulvarı  No:1","lat":39.967086,"lng":33.142267,"ilce":"Elmadağ","il":"Ankara"},{"id":440,"adi":"İSHAKOĞLU GIDA NAKLİYE VE İNŞAAT SANAYİ VE DIŞ TİCARET LİMİTED ŞİRKETİ","marka":"OPET","adres":"Muratpaşa Mahallesi Fabrikalar Caddesi  No:18","lat":41.051075,"lng":28.908306,"ilce":"Bayrampaşa","il":"İstanbul"},{"id":441,"adi":"GÜRE PETROL İNŞAAT NAKLİYE TAAHHÜT TURİZM SANAYİ VE TİCARET LİMİTED ŞİRKETİ","marka":"OPET","adres":"Kemalpaşa Caddesi No.62 Pınarbaşı","lat":38.440993,"lng":27.270022,"ilce":"Bornova","il":"İzmi̇r"},{"id":442,"adi":"KÖKÜMER PETROL SANAYİ VE TİCARET LİMİTED ŞİRKETİ","marka":"OPET","adres":"Şeker Mahallesi Sedat Kirtetepe Caddesi  No:60","lat":40.784718,"lng":30.38883,"ilce":"Adapazari","il":"Sakarya"},{"id":443,"adi":"ADIM AKARYAKIT ENERJİ İNŞAAT GIDA SANAYİ TİCARET LİMİTED ŞİRKETİ","marka":"OPET","adres":"Gaziyiğit CaddesiSeymen Köyü Köyü","lat":41.154068,"lng":28.168318,"ilce":"Si̇li̇vri̇","il":"İstanbul"},{"id":444,"adi":"ERSİNLER PETROL VE İNŞAAT TİCARET LİMİTED ŞİRKETİ","marka":"TERMOPET AKARYAKIT ANONİM ŞİRKETİ","adres":"Paşaköy","lat":41.385553,"lng":27.61863,"ilce":"Çorlu","il":"Teki̇rdağ"},{"id":445,"adi":"TÜMER PETROL ÜRÜNLERİ GIDA TEKEL GÜBRE TOPRAK MAHSULLERİ SANAYİ VE TİCARET LİMİTED ŞİRKETİ","marka":"TERMOPET AKARYAKIT ANONİM ŞİRKETİ","adres":"Hacıbeyli Mahallesi Ceyhan (kemalpaşa) Caddesi  No:2/a","lat":36.991419,"lng":35.330829,"ilce":"Kozan","il":"Adana"},{"id":446,"adi":"ÇETİN TARIMSAL ÜRÜNLERİ DEĞERLENDİRME SANAYİ ve TİCARET LİMİTED ŞİRKETİ","marka":"OPET","adres":"Yörükler Mahallesi Ankara Caddesi","lat":40.503578,"lng":30.310993,"ilce":"Geyve","il":"Sakarya"},